{"BBA":{"id":"BBA","name":"Balmaceda","location":{"lat":-45.909431,"lon":-71.69762},"countryName":"Chile","iata":"BBA","rank":93,"countryId":"CL","dest":null,"airports":["BBA"],"images":["4.jpg","5.jpg"],"popularity":5.00001,"regId":"southern-america","contId":"south-america","subId":null,"terId":null,"con":5},"SCQ":{"id":"SCQ","name":"Santiago de Compostela","location":{"lat":42.896389,"lon":-8.415278},"countryName":"Spain","iata":"SCQ","rank":17,"countryId":"ES","dest":"g187508","airports":["SCQ"],"images":[],"popularity":6.021968273165163,"regId":"southern-europe","contId":"europe","subId":null,"terId":null,"con":25},"JRH":{"id":"JRH","name":"Jorhat","location":{"lat":26.74652,"lon":94.202586},"countryName":"India","iata":"JRH","rank":127,"countryId":"IN","dest":null,"airports":["JRH"],"images":["6.jpg","10.jpg"],"popularity":5.00001,"regId":"southern-asia","contId":"asia","subId":null,"terId":null,"con":2},"SCR":{"id":"SCR","name":"Rörbäcksnäs","location":{"lat":61.130178,"lon":12.813712},"countryName":"Sweden","iata":"SCR","rank":2048,"countryId":"SE","dest":null,"airports":["SCR"],"images":[],"popularity":5.00001,"regId":"northern-europe","contId":"europe","subId":null,"terId":null,"con":1},"SCU":{"id":"SCU","name":"Santiago de Cuba","location":{"lat":20.01693,"lon":-75.830154},"countryName":"Cuba","iata":"SCU","rank":70,"countryId":"CU","dest":"g147273","airports":["SCU"],"images":[],"popularity":6.4747753645070665,"regId":"caribbean","contId":"north-america","subId":null,"terId":null,"con":1},"SCT":{"id":"SCT","name":"Socotra","location":{"lat":12.46342,"lon":53.823738},"countryName":"Yemen","iata":"SCT","rank":127,"countryId":"YE","dest":null,"airports":["SCT"],"images":["2.jpg","3.png"],"popularity":5.00001,"regId":"western-asia","contId":"asia","subId":null,"terId":null,"con":1},"JRO":{"id":"JRO","name":"Mount Kilimanjaro","location":{"lat":-3.067425,"lon":37.355627},"countryName":"Tanzania","iata":"JRO","rank":52,"countryId":"TZ","dest":null,"airports":["JRO"],"images":["7.jpg","12.jpg"],"popularity":5.00001,"regId":"eastern-africa","contId":"africa","subId":null,"terId":null,"con":16},"SCW":{"id":"SCW","name":"Syktyvkar","location":{"lat":61.647851,"lon":50.833903},"countryName":"Russia","iata":"SCW","rank":47,"countryId":"RU","dest":null,"airports":["SCW"],"images":["2.jpg","3.jpg"],"popularity":5.00001,"regId":"eastern-europe","contId":"europe","subId":"NW_RU","terId":null,"con":8},"SCV":{"id":"SCV","name":"Suceava","location":{"lat":47.663452,"lon":26.27323},"countryName":"Romania","iata":"SCV","rank":97,"countryId":"RO","dest":"g304066","airports":["SCV"],"images":[],"popularity":6.256610404115792,"regId":"eastern-europe","contId":"europe","subId":null,"terId":null,"con":6},"SCY":{"id":"SCY","name":"San Cristóbal Island","location":{"lat":-0.867471,"lon":-89.436391},"countryName":"Ecuador","iata":"SCY","rank":74,"countryId":"EC","dest":"g297530","airports":["SCY"],"images":[],"popularity":7.140580861885623,"regId":"southern-america","contId":"south-america","subId":null,"terId":null,"con":3},"BBI":{"id":"BBI","name":"Bhubaneswar","location":{"lat":20.296059,"lon":85.82454},"countryName":"India","iata":"BBI","rank":61,"countryId":"IN","dest":"g297661","airports":["BBI"],"images":[],"popularity":5.894249114876567,"regId":"southern-asia","contId":"asia","subId":null,"terId":null,"con":11},"BBK":{"id":"BBK","name":"Kasane","location":{"lat":-17.795231,"lon":25.17113},"countryName":"Botswana","iata":"BBK","rank":127,"countryId":"BW","dest":"g297318","airports":["BBK"],"images":[],"popularity":9.046869745369207,"regId":"southern-africa","contId":"africa","subId":null,"terId":null,"con":4},"SCZ":{"id":"SCZ","name":"Santa Cruz Islands","location":{"lat":-10.719722,"lon":165.796389},"countryName":"Solomon Islands","iata":"SCZ","rank":127,"countryId":"SB","dest":null,"airports":["SCZ"],"images":["5.jpg","6.jpeg"],"popularity":5.00001,"regId":"melanesia","contId":"oceania","subId":null,"terId":null,"con":1},"BBO":{"id":"BBO","name":"Berbera","location":{"lat":10.439444,"lon":45.014167},"countryName":"Somalia","iata":"BBO","rank":127,"countryId":"SO","dest":null,"airports":["BBO"],"images":["2.jpg","9.jpg"],"popularity":5.00001,"regId":"eastern-africa","contId":"africa","subId":null,"terId":null,"con":1},"BBN":{"id":"BBN","name":"Bario","location":{"lat":3.734722,"lon":115.478333},"countryName":"Malaysia","iata":"BBN","rank":127,"countryId":"MY","dest":null,"airports":["BBN"],"images":["5.jpg","6.jpg"],"popularity":5.00001,"regId":"south-eastern-asia","contId":"asia","subId":null,"terId":null,"con":5},"SDD":{"id":"SDD","name":"Lubango","location":{"lat":-14.918614,"lon":13.532123},"countryName":"Angola","iata":"SDD","rank":127,"countryId":"AO","dest":"g670166","airports":["SDD"],"images":[],"popularity":8.532727272727273,"regId":"central-africa","contId":"africa","subId":null,"terId":null,"con":2},"SDF":{"id":"SDF","name":"Louisville","location":{"lat":38.252665,"lon":-85.758456},"countryName":"United States","iata":"SDF","rank":16,"countryId":"US","dest":"g39604","airports":["SDF"],"images":[],"popularity":6.055780125480617,"regId":"northern-america","contId":"north-america","subId":"KY_US","terId":null,"con":24},"SDE":{"id":"SDE","name":"Santiago del Estero","location":{"lat":-27.783357,"lon":-64.264167},"countryName":"Argentina","iata":"SDE","rank":127,"countryId":"AR","dest":null,"airports":["SDE"],"images":["10.jpg","13.jpg"],"popularity":5.00001,"regId":"southern-america","contId":"south-america","subId":"SE_AR","terId":null,"con":1},"SDG":{"id":"SDG","name":"Sanandij","location":{"lat":35.321875,"lon":46.986165},"countryName":"Iran","iata":"SDG","rank":127,"countryId":"IR","dest":null,"airports":["SDG"],"images":["1.jpg","2.JPG"],"popularity":5.00001,"regId":"southern-asia","contId":"asia","subId":null,"terId":null,"con":1},"SDJ":{"id":"SDJ","name":"Sendai","location":{"lat":38.268215,"lon":140.869356},"countryName":"Japan","iata":"SDJ","rank":76,"countryId":"JP","dest":"g298249","airports":["SDJ"],"images":[],"popularity":6.987133285461889,"regId":"eastern-asia","contId":"asia","subId":null,"terId":null,"con":14},"JSA":{"id":"JSA","name":"Jaisalmer","location":{"lat":26.915749,"lon":70.908344},"countryName":"India","iata":"JSA","rank":95,"countryId":"IN","dest":"g297667","airports":["JSA"],"images":[],"popularity":7.6960056278703926,"regId":"southern-asia","contId":"asia","subId":null,"terId":null,"con":5},"SDL":{"id":"SDL","name":"Sundsvall","location":{"lat":62.390811,"lon":17.306927},"countryName":"Sweden","iata":"SDL","rank":106,"countryId":"SE","dest":"g189829","airports":["SDL"],"images":[],"popularity":6.924543081440099,"regId":"northern-europe","contId":"europe","subId":null,"terId":null,"con":2},"SDK":{"id":"SDK","name":"Sandakan","location":{"lat":5.839444,"lon":118.117173},"countryName":"Malaysia","iata":"SDK","rank":74,"countryId":"MY","dest":"g303997","airports":["SDK"],"images":[],"popularity":7.462983792948512,"regId":"south-eastern-asia","contId":"asia","subId":null,"terId":null,"con":6},"SDN":{"id":"SDN","name":"Sandane","location":{"lat":61.776446,"lon":6.216161},"countryName":"Norway","iata":"SDN","rank":127,"countryId":"NO","dest":null,"airports":["SDN"],"images":["4.jpg","5.jpg"],"popularity":5.00001,"regId":"northern-europe","contId":"europe","subId":null,"terId":null,"con":2},"SDP":{"id":"SDP","name":"Sand Point","location":{"lat":55.339722,"lon":-160.497222},"countryName":"United States","iata":"SDP","rank":127,"countryId":"US","dest":null,"airports":["SDP"],"images":["3.jpg","6.jpg"],"popularity":5.00001,"regId":"northern-america","contId":"north-america","subId":"AK_US","terId":null,"con":1},"JSH":{"id":"JSH","name":"Sitia","location":{"lat":35.20865,"lon":26.105233},"countryName":"Greece","iata":"JSH","rank":87,"countryId":"GR","dest":"g2543839","airports":["JSH"],"images":[],"popularity":5.860000040367797,"regId":"southern-europe","contId":"europe","subId":null,"terId":null,"con":4},"SDR":{"id":"SDR","name":"Santander","location":{"lat":43.462306,"lon":-3.80998},"countryName":"Spain","iata":"SDR","rank":18,"countryId":"ES","dest":"g187484","airports":["SDR"],"images":[],"popularity":5.98558127842439,"regId":"southern-europe","contId":"europe","subId":null,"terId":null,"con":23},"JSJ":{"id":"JSJ","name":"Jiansanjiang","location":{"lat":47.255833,"lon":132.626389},"countryName":"China","iata":"JSJ","rank":1024,"countryId":"CN","dest":null,"airports":["JSJ"],"images":["2.jpg","18.jpg"],"popularity":5.00001,"regId":"eastern-asia","contId":"asia","subId":null,"terId":null,"con":3},"SDQ":{"id":"SDQ","name":"Santo Domingo","location":{"lat":18.486058,"lon":-69.931212},"countryName":"Dominican Republic","iata":"SDQ","rank":19,"countryId":"DO","dest":"g147289","airports":["SDQ","JBQ"],"images":[],"popularity":7.170801294967186,"regId":"caribbean","contId":"north-america","subId":null,"terId":null,"con":31},"BCA":{"id":"BCA","name":"Baracoa","location":{"lat":20.347481,"lon":-74.502382},"countryName":"Cuba","iata":"BCA","rank":127,"countryId":"CU","dest":"g677686","airports":["BCA"],"images":[],"popularity":5.916712730389097,"regId":"caribbean","contId":"north-america","subId":null,"terId":null,"con":1},"JSI":{"id":"JSI","name":"Skiathos","location":{"lat":39.162663,"lon":23.490976},"countryName":"Greece","iata":"JSI","rank":15,"countryId":"GR","dest":"g189499","airports":["JSI"],"images":[],"popularity":6.690930897325262,"regId":"southern-europe","contId":"europe","subId":null,"terId":null,"con":17},"BCD":{"id":"BCD","name":"Bacolod","location":{"lat":10.640739,"lon":122.968957},"countryName":"Philippines","iata":"BCD","rank":56,"countryId":"PH","dest":"g298464","airports":["BCD"],"images":[],"popularity":6.181841376047283,"regId":"south-eastern-asia","contId":"asia","subId":null,"terId":null,"con":4},"SDZ":{"id":"SDZ","name":"Shetland Islands","location":{"lat":60.529651,"lon":-1.265941},"countryName":"United Kingdom","iata":"SDZ","rank":109,"countryId":"GB","dest":null,"airports":["LSI"],"images":["15.jpg","16.jpg"],"popularity":5.00001,"regId":"northern-europe","contId":"europe","subId":null,"terId":null,"con":5},"JSR":{"id":"JSR","name":"Jessore","location":{"lat":23.177768,"lon":89.180122},"countryName":"Bangladesh","iata":"JSR","rank":110,"countryId":"BD","dest":null,"airports":["JSR"],"images":["6.jpg","7.jpg"],"popularity":5.00001,"regId":"southern-asia","contId":"asia","subId":null,"terId":null,"con":1},"SDY":{"id":"SDY","name":"Sidney","location":{"lat":47.716684,"lon":-104.156325},"countryName":"United States","iata":"SDY","rank":92,"countryId":"US","dest":null,"airports":["SDY"],"images":["5.jpg","7.jpg"],"popularity":5.00001,"regId":"northern-america","contId":"north-america","subId":"MT_US","terId":null,"con":1},"BCI":{"id":"BCI","name":"Barcaldine","location":{"lat":-23.556321,"lon":145.293339},"countryName":"Australia","iata":"BCI","rank":127,"countryId":"AU","dest":null,"airports":["BCI"],"images":["2.jpg","4.png"],"popularity":5.00001,"regId":"australasia","contId":"oceania","subId":"QL_AU","terId":null,"con":1},"JST":{"id":"JST","name":"Johnstown","location":{"lat":40.326741,"lon":-78.92197},"countryName":"United States","iata":"JST","rank":105,"countryId":"US","dest":null,"airports":["JST"],"images":["3.jpg","8.jpg"],"popularity":5.00001,"regId":"northern-america","contId":"north-america","subId":"PA_US","terId":null,"con":2},"BCN":{"id":"BCN","name":"Barcelona","location":{"lat":41.385064,"lon":2.173404},"countryName":"Spain","iata":"BCN","rank":3,"countryId":"ES","dest":"g187497","airports":["BCN"],"images":[],"popularity":9.926869745369208,"regId":"southern-europe","contId":"europe","subId":null,"terId":null,"con":186},"JSU":{"id":"JSU","name":"Maniitsoq","location":{"lat":65.407676,"lon":-52.900572},"countryName":"Greenland","iata":"JSU","rank":127,"countryId":"GL","dest":null,"airports":["JSU"],"images":["3.jpg","5.jpg"],"popularity":5.00001,"regId":"northern-america","contId":"north-america","subId":null,"terId":null,"con":2},"BCM":{"id":"BCM","name":"Bacău","location":{"lat":46.567044,"lon":26.914575},"countryName":"Romania","iata":"BCM","rank":17,"countryId":"RO","dest":"g608954","airports":["BCM"],"images":[],"popularity":5.795180097671065,"regId":"eastern-europe","contId":"europe","subId":null,"terId":null,"con":9},"SEA":{"id":"SEA","name":"Seattle","location":{"lat":47.606209,"lon":-122.332071},"countryName":"United States","iata":"SEA","rank":0,"countryId":"US","dest":"g60878","airports":["SEA","BFI","LKE"],"images":[],"popularity":7.916005627870393,"regId":"northern-america","contId":"north-america","subId":"WA_US","terId":null,"con":114},"BCO":{"id":"BCO","name":"Jinka","location":{"lat":5.780634,"lon":36.571592},"countryName":"Ethiopia","iata":"BCO","rank":127,"countryId":"ET","dest":null,"airports":["BCO"],"images":["7.jpg","11.jpg"],"popularity":5.00001,"regId":"eastern-africa","contId":"africa","subId":null,"terId":null,"con":1},"JSY":{"id":"JSY","name":"Syros","location":{"lat":37.438503,"lon":24.913934},"countryName":"Greece","iata":"JSY","rank":127,"countryId":"GR","dest":"g616163","airports":["JSY"],"images":[],"popularity":5.8600066795369345,"regId":"southern-europe","contId":"europe","subId":null,"terId":null,"con":1},"SEB":{"id":"SEB","name":"Sabha","location":{"lat":27.008713,"lon":14.44904},"countryName":"Libya","iata":"SEB","rank":127,"countryId":"LY","dest":null,"airports":["SEB"],"images":["2.jpg","6.jpg"],"popularity":5.00001,"regId":"northern-africa","contId":"africa","subId":null,"terId":null,"con":1},"JTC":{"id":"JTC","name":"Bauru","location":{"lat":-22.314459,"lon":-49.058695},"countryName":"Brazil","iata":"JTC","rank":126,"countryId":"BR","dest":"g303601","airports":["JTC"],"images":[],"popularity":5.579026608641888,"regId":"southern-america","contId":"south-america","subId":"SP_BR","terId":null,"con":3},"SEK":{"id":"SEK","name":"Srednekolymsk","location":{"lat":67.437307,"lon":153.728674},"countryName":"Russia","iata":"SEK","rank":94,"countryId":"RU","dest":null,"airports":["SEK"],"images":["9.jpg","13.jpg"],"popularity":5.00001,"regId":"eastern-asia","contId":"asia","subId":"FE_RU","terId":null,"con":1},"SEL":{"id":"SEL","name":"Seoul","location":{"lat":37.566535,"lon":126.977969},"countryName":"South Korea","iata":"SEL","rank":11,"countryId":"KR","dest":"g294197","airports":["ICN","GMP"],"images":[],"popularity":9.766869745369208,"regId":"eastern-asia","contId":"asia","subId":null,"terId":null,"con":161},"BDA":{"id":"BDA","name":"Bermuda","location":{"lat":32.3078,"lon":-64.7505},"countryName":"United Kingdom","iata":"BDA","rank":29,"countryId":"GB","dest":null,"airports":["BDA"],"images":["4.jpg","5.jpg"],"popularity":5.00001,"regId":"northern-america","contId":"north-america","subId":null,"terId":"BM","con":9},"BDB":{"id":"BDB","name":"Bundaberg Region","location":{"lat":-24.95816,"lon":152.262663},"countryName":"Australia","iata":"BDB","rank":127,"countryId":"AU","dest":null,"airports":["BDB"],"images":["4.jpg","20.jpg"],"popularity":5.623629721668112,"regId":"australasia","contId":"oceania","subId":"QL_AU","terId":null,"con":1},"SEU":{"id":"SEU","name":"Seronera","location":{"lat":-2.435828,"lon":34.8224},"countryName":"Tanzania","iata":"SEU","rank":127,"countryId":"TZ","dest":null,"airports":["SEU"],"images":["3.jpg","5.jpg"],"popularity":7.912854804935542,"regId":"eastern-africa","contId":"africa","subId":null,"terId":null,"con":10},"BDD":{"id":"BDD","name":"Badu Island","location":{"lat":-10.120278,"lon":142.139167},"countryName":"Australia","iata":"BDD","rank":2048,"countryId":"AU","dest":null,"airports":["BDD"],"images":[],"popularity":5.00001,"regId":"australasia","contId":"oceania","subId":"QL_AU","terId":null,"con":1},"BDH":{"id":"BDH","name":"Bandar Lengeh","location":{"lat":26.562787,"lon":54.888679},"countryName":"Iran","iata":"BDH","rank":127,"countryId":"IR","dest":null,"airports":["BDH"],"images":["4.png","6.jpg"],"popularity":5.00001,"regId":"southern-asia","contId":"asia","subId":null,"terId":null,"con":1},"JTR":{"id":"JTR","name":"Santorini","location":{"lat":36.393156,"lon":25.461509},"countryName":"Greece","iata":"JTR","rank":10,"countryId":"GR","dest":"g189433","airports":["JTR"],"images":[],"popularity":8.70249108421287,"regId":"southern-europe","contId":"europe","subId":null,"terId":null,"con":38},"BDJ":{"id":"BDJ","name":"Banjarmasin","location":{"lat":-3.318607,"lon":114.594378},"countryName":"Indonesia","iata":"BDJ","rank":115,"countryId":"ID","dest":"g303950","airports":["BDJ"],"images":[],"popularity":5.8208633470147015,"regId":"south-eastern-asia","contId":"asia","subId":null,"terId":null,"con":10},"SEZ":{"id":"SEZ","name":"Mahé","location":{"lat":-4.682669,"lon":55.480396},"countryName":"Seychelles","iata":"SEZ","rank":38,"countryId":"SC","dest":"g297798","airports":["SEZ"],"images":[],"popularity":8.576869745369208,"regId":"eastern-africa","contId":"africa","subId":null,"terId":null,"con":17},"BDO":{"id":"BDO","name":"Bandung","location":{"lat":-6.917464,"lon":107.619123},"countryName":"Indonesia","iata":"BDO","rank":59,"countryId":"ID","dest":"g297704","airports":["BDO"],"images":[],"popularity":7.953549815879445,"regId":"south-eastern-asia","contId":"asia","subId":null,"terId":null,"con":13},"BDQ":{"id":"BDQ","name":"Vadodara","location":{"lat":22.307159,"lon":73.181219},"countryName":"India","iata":"BDQ","rank":59,"countryId":"IN","dest":"g297613","airports":["BDQ"],"images":[],"popularity":6.1430283924348155,"regId":"southern-asia","contId":"asia","subId":null,"terId":null,"con":4},"JTY":{"id":"JTY","name":"Astypalaia","location":{"lat":36.538981,"lon":26.313136},"countryName":"Greece","iata":"JTY","rank":127,"countryId":"GR","dest":null,"airports":["JTY"],"images":["3.ashx","4.jpg"],"popularity":5.00001,"regId":"southern-europe","contId":"europe","subId":null,"terId":null,"con":2},"SFA":{"id":"SFA","name":"Sfax","location":{"lat":34.747847,"lon":10.766163},"countryName":"Tunisia","iata":"SFA","rank":127,"countryId":"TN","dest":"g317087","airports":["SFA"],"images":[],"popularity":6.040158890538422,"regId":"northern-africa","contId":"africa","subId":null,"terId":null,"con":3},"BDP":{"id":"BDP","name":"Bhadrapur, Mechi","location":{"lat":26.53633,"lon":88.080305},"countryName":"Nepal","iata":"BDP","rank":114,"countryId":"NP","dest":null,"airports":["BDP"],"images":["7.jpg","10.jpg"],"popularity":5.00001,"regId":"southern-asia","contId":"asia","subId":null,"terId":null,"con":1},"SFD":{"id":"SFD","name":"San Fernando de Apure","location":{"lat":7.880689,"lon":-67.469531},"countryName":"Venezuela","iata":"SFD","rank":127,"countryId":"VE","dest":null,"airports":["SFD"],"images":["7.jpg","13.jpg"],"popularity":5.00001,"regId":"southern-america","contId":"south-america","subId":null,"terId":null,"con":1},"BDS":{"id":"BDS","name":"Brindisi","location":{"lat":40.632728,"lon":17.941762},"countryName":"Italy","iata":"BDS","rank":18,"countryId":"IT","dest":null,"airports":["BDS"],"images":["1.jpg","3.jpg"],"popularity":5.00001,"regId":"southern-europe","contId":"europe","subId":null,"terId":null,"con":31},"BDU":{"id":"BDU","name":"Andselv","location":{"lat":69.067809,"lon":18.51972},"countryName":"Norway","iata":"BDU","rank":117,"countryId":"NO","dest":null,"airports":["BDU"],"images":["1.jpg","3.jpg"],"popularity":5.00001,"regId":"northern-europe","contId":"europe","subId":null,"terId":null,"con":1},"SFG":{"id":"SFG","name":"Saint Martin (Island)","location":{"lat":18.07083,"lon":-63.050081},"countryName":"St. Martin","iata":"SFG","rank":125,"countryId":"MF","dest":null,"airports":["SFG"],"images":["7.jpg","8.jpg"],"popularity":5.00001,"regId":"caribbean","contId":"north-america","subId":null,"terId":null,"con":1},"SFJ":{"id":"SFJ","name":"Kangerlussuaq","location":{"lat":67.009478,"lon":-50.72115},"countryName":"Greenland","iata":"SFJ","rank":127,"countryId":"GL","dest":null,"airports":["SFJ"],"images":["1.JPG","3.JPG"],"popularity":5.00001,"regId":"northern-america","contId":"north-america","subId":null,"terId":null,"con":7},"JUB":{"id":"JUB","name":"Juba","location":{"lat":4.859363,"lon":31.57125},"countryName":"South Sudan","iata":"JUB","rank":76,"countryId":"SS","dest":null,"airports":["JUB"],"images":["4.jpg","5.jpg"],"popularity":5.00001,"regId":"eastern-africa","contId":"africa","subId":null,"terId":null,"con":5},"SFL":{"id":"SFL","name":"São Filipe","location":{"lat":14.895168,"lon":-24.494564},"countryName":"Cape Verde","iata":"SFL","rank":127,"countryId":"CV","dest":"g1185367","airports":["SFL"],"images":[],"popularity":5.00001,"regId":"western-africa","contId":"africa","subId":null,"terId":null,"con":2},"SFN":{"id":"SFN","name":"Santa Fe","location":{"lat":-31.610658,"lon":-60.697294},"countryName":"Argentina","iata":"SFN","rank":127,"countryId":"AR","dest":"g312810","airports":["SFN"],"images":[],"popularity":6.166979822027712,"regId":"southern-america","contId":"south-america","subId":"SF_AR","terId":null,"con":1},"JUH":{"id":"JUH","name":"Chizhou","location":{"lat":30.6648,"lon":117.491568},"countryName":"China","iata":"JUH","rank":127,"countryId":"CN","dest":null,"airports":["JUH"],"images":["14.jpg","15.jpg"],"popularity":5.00001,"regId":"eastern-asia","contId":"asia","subId":null,"terId":null,"con":9},"SFO":{"id":"SFO","name":"San Francisco","location":{"lat":37.774929,"lon":-122.419415},"countryName":"United States","iata":"SFO","rank":0,"countryId":"US","dest":"g60713","airports":["SFO"],"images":[],"popularity":9.409752066115702,"regId":"northern-america","contId":"north-america","subId":"CA_US","terId":null,"con":134},"BEB":{"id":"BEB","name":"Benbecula","location":{"lat":57.456519,"lon":-7.282039},"countryName":"United Kingdom","iata":"BEB","rank":127,"countryId":"GB","dest":null,"airports":["BEB"],"images":["14.png","16.jpg"],"popularity":5.00001,"regId":"northern-europe","contId":"europe","subId":null,"terId":null,"con":2},"JUJ":{"id":"JUJ","name":"San Salvador de Jujuy","location":{"lat":-24.185786,"lon":-65.299477},"countryName":"Argentina","iata":"JUJ","rank":109,"countryId":"AR","dest":"g303178","airports":["JUJ"],"images":[],"popularity":5.885203242805476,"regId":"southern-america","contId":"south-america","subId":"PJ_AR","terId":null,"con":3},"SFQ":{"id":"SFQ","name":"Şanlıurfa","location":{"lat":37.167404,"lon":38.795515},"countryName":"Turkey","iata":"SFQ","rank":37,"countryId":"TR","dest":"g652373","airports":["GNY"],"images":[],"popularity":6.1562095419998615,"regId":"western-asia","contId":"asia","subId":null,"terId":null,"con":3},"SFT":{"id":"SFT","name":"Skellefteå","location":{"lat":64.750244,"lon":20.950917},"countryName":"Sweden","iata":"SFT","rank":126,"countryId":"SE","dest":"g227950","airports":["SFT"],"images":[],"popularity":5.917176578381813,"regId":"northern-europe","contId":"europe","subId":null,"terId":null,"con":1},"JUL":{"id":"JUL","name":"Juliaca","location":{"lat":-15.499688,"lon":-70.129653},"countryName":"Peru","iata":"JUL","rank":77,"countryId":"PE","dest":null,"airports":["JUL"],"images":["6.jpg","9.jpg"],"popularity":5.00001,"regId":"southern-america","contId":"south-america","subId":null,"terId":null,"con":2},"BEG":{"id":"BEG","name":"Belgrade","location":{"lat":44.786568,"lon":20.448922},"countryName":"Serbia","iata":"BEG","rank":23,"countryId":"RS","dest":"g294472","airports":["BEG"],"images":[],"popularity":8.916869745369208,"regId":"southern-europe","contId":"europe","subId":null,"terId":null,"con":69},"BEJ":{"id":"BEJ","name":"Tanjung Redeb","location":{"lat":2.139021,"lon":117.490874},"countryName":"Indonesia","iata":"BEJ","rank":127,"countryId":"ID","dest":null,"airports":["BEJ"],"images":["6.jpg","7.JPG"],"popularity":5.00001,"regId":"south-eastern-asia","contId":"asia","subId":null,"terId":null,"con":1},"BEL":{"id":"BEL","name":"Belém","location":{"lat":-1.455779,"lon":-48.490197},"countryName":"Brazil","iata":"BEL","rank":69,"countryId":"BR","dest":"g303404","airports":["BEL"],"images":[],"popularity":6.553477004882028,"regId":"southern-america","contId":"south-america","subId":"PA_BR","terId":null,"con":18},"JUV":{"id":"JUV","name":"Upernavik","location":{"lat":72.786288,"lon":-56.137553},"countryName":"Greenland","iata":"JUV","rank":127,"countryId":"GL","dest":null,"airports":["JUV"],"images":["3.jpg","5.jpg"],"popularity":5.00001,"regId":"northern-america","contId":"north-america","subId":null,"terId":null,"con":1},"BEN":{"id":"BEN","name":"Benghazi","location":{"lat":32.119424,"lon":20.086791},"countryName":"Libya","iata":"BEN","rank":108,"countryId":"LY","dest":null,"airports":["BEN"],"images":["1.jpg","2.jpg"],"popularity":5.00001,"regId":"northern-africa","contId":"africa","subId":null,"terId":null,"con":1},"BEM":{"id":"BEM","name":"Beni Mellal","location":{"lat":32.342443,"lon":-6.375799},"countryName":"Morocco","iata":"BEM","rank":127,"countryId":"MA","dest":null,"airports":["BEM"],"images":["8.jpg","11.jpg"],"popularity":5.00001,"regId":"northern-africa","contId":"africa","subId":null,"terId":null,"con":1},"JUZ":{"id":"JUZ","name":"Quzhou","location":{"lat":28.97008,"lon":118.859457},"countryName":"China","iata":"JUZ","rank":127,"countryId":"CN","dest":null,"airports":["JUZ"],"images":["2.jpg","3.jpg"],"popularity":5.00001,"regId":"eastern-asia","contId":"asia","subId":null,"terId":null,"con":7},"SGC":{"id":"SGC","name":"Surgut","location":{"lat":61.25595,"lon":73.384547},"countryName":"Russia","iata":"SGC","rank":40,"countryId":"RU","dest":null,"airports":["SGC"],"images":["3.jpg","5.jpg"],"popularity":5.00001,"regId":"central-asia","contId":"asia","subId":"UR_RU","terId":null,"con":30},"BER":{"id":"BER","name":"Berlin","location":{"lat":52.520007,"lon":13.404954},"countryName":"Germany","iata":"BER","rank":1,"countryId":"DE","dest":"g187323","airports":["SXF","TXL","BER"],"images":[],"popularity":9.886869745369207,"regId":"central-europe","contId":"europe","subId":null,"terId":null,"con":167},"BET":{"id":"BET","name":"Bethel","location":{"lat":60.792222,"lon":-161.755833},"countryName":"United States","iata":"BET","rank":127,"countryId":"US","dest":null,"airports":["BET"],"images":["7.jpg","11.jpg"],"popularity":5.00001,"regId":"northern-america","contId":"north-america","subId":"AK_US","terId":null,"con":21},"BES":{"id":"BES","name":"Brest","location":{"lat":48.390394,"lon":-4.486076},"countryName":"France","iata":"BES","rank":54,"countryId":"FR","dest":"g187095","airports":["BES"],"images":[],"popularity":6.168685571900712,"regId":"western-europe","contId":"europe","subId":null,"terId":null,"con":22},"SGD":{"id":"SGD","name":"Sønderborg","location":{"lat":54.913811,"lon":9.792178},"countryName":"Denmark","iata":"SGD","rank":127,"countryId":"DK","dest":"g227597","airports":["SGD"],"images":[],"popularity":5.978809150136881,"regId":"northern-europe","contId":"europe","subId":null,"terId":null,"con":1},"SGG":{"id":"SGG","name":"Sermiligaaq","location":{"lat":65.907778,"lon":-36.379167},"countryName":"Greenland","iata":"SGG","rank":2048,"countryId":"GL","dest":null,"airports":["SGG"],"images":[],"popularity":5.00001,"regId":"northern-america","contId":"north-america","subId":null,"terId":null,"con":1},"SGF":{"id":"SGF","name":"Springfield","location":{"lat":37.208957,"lon":-93.292299},"countryName":"United States","iata":"SGF","rank":35,"countryId":"US","dest":"g44926","airports":["SGF"],"images":[],"popularity":5.980508673776616,"regId":"northern-america","contId":"north-america","subId":"MO_US","terId":null,"con":12},"BEU":{"id":"BEU","name":"Bedourie","location":{"lat":-24.332214,"lon":139.461973},"countryName":"Australia","iata":"BEU","rank":127,"countryId":"AU","dest":null,"airports":["BEU"],"images":["10.jpg","15.jpg"],"popularity":5.00001,"regId":"australasia","contId":"oceania","subId":"QL_AU","terId":null,"con":2},"BEW":{"id":"BEW","name":"Beira","location":{"lat":-19.796382,"lon":34.884487},"countryName":"Mozambique","iata":"BEW","rank":125,"countryId":"MZ","dest":"g298353","airports":["BEW"],"images":[],"popularity":7.944505839765043,"regId":"eastern-africa","contId":"africa","subId":null,"terId":null,"con":9},"BEY":{"id":"BEY","name":"Beirut","location":{"lat":33.893791,"lon":35.501777},"countryName":"Lebanon","iata":"BEY","rank":22,"countryId":"LB","dest":"g294005","airports":["BEY"],"images":[],"popularity":9.03686974536921,"regId":"western-asia","contId":"asia","subId":null,"terId":null,"con":56},"SGO":{"id":"SGO","name":"St George","location":{"lat":-28.04227,"lon":148.586708},"countryName":"Australia","iata":"SGO","rank":127,"countryId":"AU","dest":null,"airports":["SGO"],"images":["2.JPG","4.jpg"],"popularity":5.00001,"regId":"australasia","contId":"oceania","subId":"QL_AU","terId":null,"con":2},"SGN":{"id":"SGN","name":"Ho Chi Minh City","location":{"lat":10.823099,"lon":106.629664},"countryName":"Vietnam","iata":"SGN","rank":10,"countryId":"VN","dest":"g293925","airports":["SGN"],"images":[],"popularity":9.381743448161036,"regId":"south-eastern-asia","contId":"asia","subId":null,"terId":null,"con":72},"SGU":{"id":"SGU","name":"St. George","location":{"lat":37.096528,"lon":-113.568416},"countryName":"United States","iata":"SGU","rank":40,"countryId":"US","dest":"g57119","airports":["SGU"],"images":[],"popularity":5.980014263091091,"regId":"northern-america","contId":"north-america","subId":"UT_US","terId":null,"con":5},"BFD":{"id":"BFD","name":"Bradford","location":{"lat":41.956495,"lon":-78.649163},"countryName":"United States","iata":"BFD","rank":1024,"countryId":"US","dest":null,"airports":["BFD"],"images":[],"popularity":5.00001,"regId":"northern-america","contId":"north-america","subId":"PA_US","terId":null,"con":1},"BFF":{"id":"BFF","name":"Scottsbluff","location":{"lat":41.866634,"lon":-103.667166},"countryName":"United States","iata":"BFF","rank":106,"countryId":"US","dest":null,"airports":["BFF"],"images":["3.jpg","4.jpg"],"popularity":5.00001,"regId":"northern-america","contId":"north-america","subId":"NE_US","terId":null,"con":1},"SGY":{"id":"SGY","name":"Skagway","location":{"lat":59.458333,"lon":-135.313889},"countryName":"United States","iata":"SGY","rank":127,"countryId":"US","dest":"g60877","airports":["SGY"],"images":[],"popularity":5.9800000063300365,"regId":"northern-america","contId":"north-america","subId":"AK_US","terId":null,"con":1},"SGX":{"id":"SGX","name":"Songea","location":{"lat":-10.646269,"lon":35.642353},"countryName":"Tanzania","iata":"SGX","rank":127,"countryId":"TZ","dest":null,"airports":["SGX"],"images":["4.jpg","6.jpg"],"popularity":5.00001,"regId":"eastern-africa","contId":"africa","subId":null,"terId":null,"con":1},"BFJ":{"id":"BFJ","name":"Bijie","location":{"lat":27.283955,"lon":105.291644},"countryName":"China","iata":"BFJ","rank":120,"countryId":"CN","dest":null,"airports":["BFJ"],"images":["3.jpg","7.jpg"],"popularity":5.00001,"regId":"eastern-asia","contId":"asia","subId":null,"terId":null,"con":15},"BFL":{"id":"BFL","name":"Bakersfield","location":{"lat":35.373292,"lon":-119.018713},"countryName":"United States","iata":"BFL","rank":68,"countryId":"US","dest":"g32037","airports":["BFL"],"images":[],"popularity":5.980000019866364,"regId":"northern-america","contId":"north-america","subId":"CA_US","terId":null,"con":5},"BFN":{"id":"BFN","name":"Bloemfontein","location":{"lat":-29.085214,"lon":26.159576},"countryName":"South Africa","iata":"BFN","rank":119,"countryId":"ZA","dest":"g312564","airports":["BFN"],"images":[],"popularity":6.13981079033074,"regId":"southern-africa","contId":"africa","subId":null,"terId":null,"con":3},"BFQ":{"id":"BFQ","name":"Bahia Pinas","location":{"lat":7.584722,"lon":-78.181111},"countryName":"Panama","iata":"BFQ","rank":127,"countryId":"PA","dest":null,"airports":["BFQ"],"images":["3.jpg","6.jpg"],"popularity":5.00001,"regId":"central-america","contId":"north-america","subId":null,"terId":null,"con":1},"SHB":{"id":"SHB","name":"Nakashibetsu","location":{"lat":43.555242,"lon":144.971392},"countryName":"Japan","iata":"SHB","rank":127,"countryId":"JP","dest":null,"airports":["SHB"],"images":["4.jpg","7.jpg"],"popularity":5.00001,"regId":"eastern-asia","contId":"asia","subId":null,"terId":null,"con":2},"SHA":{"id":"SHA","name":"Shanghai","location":{"lat":31.230416,"lon":121.473701},"countryName":"China","iata":"SHA","rank":4,"countryId":"CN","dest":"g308272","airports":["PVG","SHA"],"images":[],"popularity":9.557154313972006,"regId":"eastern-asia","contId":"asia","subId":null,"terId":null,"con":228},"SHD":{"id":"SHD","name":"Staunton, Virginia","location":{"lat":38.149576,"lon":-79.071696},"countryName":"United States","iata":"SHD","rank":81,"countryId":"US","dest":"g58210","airports":["SHD"],"images":[],"popularity":5.9800000000066245,"regId":"northern-america","contId":"north-america","subId":"VA_US","terId":null,"con":3},"BFS":{"id":"BFS","name":"Belfast","location":{"lat":54.597285,"lon":-5.93012},"countryName":"United Kingdom","iata":"BFS","rank":7,"countryId":"GB","dest":"g186470","airports":["BHD","BFS"],"images":[],"popularity":7.8531126507638,"regId":"northern-europe","contId":"europe","subId":null,"terId":null,"con":66},"SHC":{"id":"SHC","name":"Shire","location":{"lat":14.105671,"lon":38.284946},"countryName":"Ethiopia","iata":"SHC","rank":127,"countryId":"ET","dest":null,"airports":["SHC"],"images":["1.jpg","6.jpg"],"popularity":5.00001,"regId":"eastern-africa","contId":"africa","subId":null,"terId":null,"con":2},"SHF":{"id":"SHF","name":"Shihezi","location":{"lat":44.306097,"lon":86.080602},"countryName":"China","iata":"SHF","rank":127,"countryId":"CN","dest":null,"airports":["SHF"],"images":["7.jpg","9.jpg"],"popularity":5.00001,"regId":"eastern-asia","contId":"asia","subId":null,"terId":null,"con":3},"SHE":{"id":"SHE","name":"Shenyang","location":{"lat":41.805699,"lon":123.431472},"countryName":"China","iata":"SHE","rank":31,"countryId":"CN","dest":"g297454","airports":["SHE"],"images":[],"popularity":7.162107175907254,"regId":"eastern-asia","contId":"asia","subId":null,"terId":null,"con":91},"SHH":{"id":"SHH","name":"Shishmaref","location":{"lat":66.256667,"lon":-166.071944},"countryName":"United States","iata":"SHH","rank":127,"countryId":"US","dest":null,"airports":["SHH"],"images":["2.jpg","5.jpg"],"popularity":5.00001,"regId":"northern-america","contId":"north-america","subId":"AK_US","terId":null,"con":1},"BFV":{"id":"BFV","name":"Buriram Province","location":{"lat":14.993002,"lon":103.102919},"countryName":"Thailand","iata":"BFV","rank":87,"countryId":"TH","dest":null,"airports":["BFV"],"images":["11.png","15.jpg"],"popularity":5.00001,"regId":"south-eastern-asia","contId":"asia","subId":null,"terId":null,"con":1},"SHG":{"id":"SHG","name":"Shungnak","location":{"lat":66.888056,"lon":-157.136389},"countryName":"United States","iata":"SHG","rank":127,"countryId":"US","dest":null,"airports":["SHG"],"images":["4.jpg","7.jpg"],"popularity":5.00001,"regId":"northern-america","contId":"north-america","subId":"AK_US","terId":null,"con":1},"BFX":{"id":"BFX","name":"Bafoussam","location":{"lat":5.480752,"lon":10.428418},"countryName":"Cameroon","iata":"BFX","rank":127,"countryId":"CM","dest":null,"airports":["BFX"],"images":["4.jpg","7.jpg"],"popularity":5.00001,"regId":"central-africa","contId":"africa","subId":null,"terId":null,"con":1},"SHL":{"id":"SHL","name":"Shillong","location":{"lat":25.578773,"lon":91.893254},"countryName":"India","iata":"SHL","rank":127,"countryId":"IN","dest":"g503702","airports":["SHL"],"images":[],"popularity":5.816934729887766,"regId":"southern-asia","contId":"asia","subId":null,"terId":null,"con":1},"SHM":{"id":"SHM","name":"Shirahama","location":{"lat":33.678165,"lon":135.348134},"countryName":"Japan","iata":"SHM","rank":127,"countryId":"JP","dest":null,"airports":["SHM"],"images":["3.jpg","5.jpg"],"popularity":5.00001,"regId":"eastern-asia","contId":"asia","subId":null,"terId":null,"con":1},"BGA":{"id":"BGA","name":"Bucaramanga","location":{"lat":7.11732,"lon":-73.1261},"countryName":"Colombia","iata":"BGA","rank":55,"countryId":"CO","dest":"g297474","airports":["BGA"],"images":[],"popularity":7.78690479746739,"regId":"southern-america","contId":"south-america","subId":null,"terId":null,"con":6},"BGC":{"id":"BGC","name":"Bragança","location":{"lat":41.806113,"lon":-6.756738},"countryName":"Portugal","iata":"BGC","rank":2048,"countryId":"PT","dest":"g189172","airports":["BGC"],"images":[],"popularity":5.691517247407004,"regId":"southern-europe","contId":"europe","subId":null,"terId":null,"con":1},"BGF":{"id":"BGF","name":"Bangui","location":{"lat":4.394673,"lon":18.55819},"countryName":"Central African Republic","iata":"BGF","rank":104,"countryId":"CF","dest":null,"airports":["BGF"],"images":["1.jpg","4.jpg"],"popularity":5.00001,"regId":"central-africa","contId":"africa","subId":null,"terId":null,"con":6},"SHV":{"id":"SHV","name":"Shreveport","location":{"lat":32.525152,"lon":-93.750179},"countryName":"United States","iata":"SHV","rank":57,"countryId":"US","dest":"g40424","airports":["SHV"],"images":[],"popularity":5.980000046843847,"regId":"northern-america","contId":"north-america","subId":"LA_US","terId":null,"con":8},"SHX":{"id":"SHX","name":"Shageluk","location":{"lat":62.682222,"lon":-159.561944},"countryName":"United States","iata":"SHX","rank":127,"countryId":"US","dest":null,"airports":["SHX"],"images":["6.jpg","9.jpg"],"popularity":5.00001,"regId":"northern-america","contId":"north-america","subId":"AK_US","terId":null,"con":1},"BGG":{"id":"BGG","name":"Bingöl","location":{"lat":38.885464,"lon":40.496625},"countryName":"Turkey","iata":"BGG","rank":40,"countryId":"TR","dest":null,"airports":["BGG"],"images":["6.jpg","8.jpg"],"popularity":5.00001,"regId":"western-asia","contId":"asia","subId":null,"terId":null,"con":2},"SHW":{"id":"SHW","name":"Sharurah","location":{"lat":17.485032,"lon":47.116724},"countryName":"Saudi Arabia","iata":"SHW","rank":127,"countryId":"SA","dest":null,"airports":["SHW"],"images":["3.jpg","5.jpg"],"popularity":5.00001,"regId":"western-asia","contId":"asia","subId":null,"terId":null,"con":3},"BGI":{"id":"BGI","name":"Bridgetown","location":{"lat":13.113222,"lon":-59.598809},"countryName":"Barbados","iata":"BGI","rank":29,"countryId":"BB","dest":"g147263","airports":["BGI"],"images":[],"popularity":8.726869745369207,"regId":"caribbean","contId":"north-america","subId":null,"terId":null,"con":24},"BGN":{"id":"BGN","name":"Belaya Gora, Sakha Republic","location":{"lat":68.556944,"lon":146.231111},"countryName":"Russia","iata":"BGN","rank":127,"countryId":"RU","dest":null,"airports":["BGN"],"images":["4.jpg","7.jpg"],"popularity":5.00001,"regId":"eastern-asia","contId":"asia","subId":"FE_RU","terId":null,"con":1},"BGM":{"id":"BGM","name":"Binghamton","location":{"lat":42.098687,"lon":-75.917974},"countryName":"United States","iata":"BGM","rank":90,"countryId":"US","dest":null,"airports":["BGM"],"images":["3.jpg","6.jpg"],"popularity":5.00001,"regId":"northern-america","contId":"north-america","subId":"NY_US","terId":null,"con":2},"SIA":{"id":"SIA","name":"Xi An","location":{"lat":34.341575,"lon":108.93977},"countryName":"China","iata":"SIA","rank":52,"countryId":"CN","dest":"g298557","airports":["XIY"],"images":[],"popularity":9.077956423741547,"regId":"eastern-asia","contId":"asia","subId":null,"terId":null,"con":158},"BGO":{"id":"BGO","name":"Bergen","location":{"lat":60.391263,"lon":5.322054},"countryName":"Norway","iata":"BGO","rank":30,"countryId":"NO","dest":"g190502","airports":["BGO"],"images":[],"popularity":9.187843657393714,"regId":"northern-europe","contId":"europe","subId":null,"terId":null,"con":62},"BGR":{"id":"BGR","name":"Bangor","location":{"lat":44.801182,"lon":-68.777814},"countryName":"United States","iata":"BGR","rank":50,"countryId":"US","dest":"g40502","airports":["BGR"],"images":[],"popularity":5.980000004534525,"regId":"northern-america","contId":"north-america","subId":"ME_US","terId":null,"con":7},"SIC":{"id":"SIC","name":"Isla San José","location":{"lat":8.262222,"lon":-79.077778},"countryName":"Panama","iata":"SIC","rank":127,"countryId":"PA","dest":null,"airports":["SIC"],"images":["5.jpg","6.jpg"],"popularity":5.00001,"regId":"central-america","contId":"north-america","subId":null,"terId":null,"con":1},"SID":{"id":"SID","name":"Sal","location":{"lat":16.726615,"lon":-22.929711},"countryName":"Cape Verde","iata":"SID","rank":36,"countryId":"CV","dest":"g482847","airports":["SID"],"images":[],"popularity":8.69686974536921,"regId":"western-africa","contId":"africa","subId":null,"terId":null,"con":33},"SIF":{"id":"SIF","name":"Simara, Bara","location":{"lat":27.159444,"lon":84.98},"countryName":"Nepal","iata":"SIF","rank":127,"countryId":"NP","dest":null,"airports":["SIF"],"images":["4.jpg","10.jpg"],"popularity":5.00001,"regId":"southern-asia","contId":"asia","subId":null,"terId":null,"con":1},"JXA":{"id":"JXA","name":"Jixi","location":{"lat":45.295075,"lon":130.969333},"countryName":"China","iata":"JXA","rank":127,"countryId":"CN","dest":null,"airports":["JXA"],"images":["4.jpg","5.jpg"],"popularity":5.00001,"regId":"eastern-asia","contId":"asia","subId":null,"terId":null,"con":5},"BGW":{"id":"BGW","name":"Baghdad","location":{"lat":33.312806,"lon":44.361488},"countryName":"Iraq","iata":"BGW","rank":35,"countryId":"IQ","dest":"g294001","airports":["BGW"],"images":[],"popularity":8.610236204794706,"regId":"western-asia","contId":"asia","subId":null,"terId":null,"con":11},"SIN":{"id":"SIN","name":"Singapore","location":{"lat":1.352083,"lon":103.819836},"countryName":"Singapore","iata":"SIN","rank":4,"countryId":"SG","dest":"g294265","airports":["SIN"],"images":[],"popularity":9.806869745369209,"regId":"south-eastern-asia","contId":"asia","subId":null,"terId":null,"con":142},"SIP":{"id":"SIP","name":"Simferopol","location":{"lat":44.952117,"lon":34.102417},"countryName":"Russia","iata":"SIP","rank":32,"countryId":"RU","dest":null,"airports":["SIP"],"images":["3.jpg","6.jpg"],"popularity":5.00001,"regId":"eastern-europe","contId":"europe","subId":null,"terId":null,"con":37},"SIS":{"id":"SIS","name":"Dingleton","location":{"lat":-27.78179,"lon":22.984909},"countryName":"South Africa","iata":"SIS","rank":127,"countryId":"ZA","dest":null,"airports":["SIS"],"images":["6.jpg","8.jpg"],"popularity":5.00001,"regId":"southern-africa","contId":"africa","subId":null,"terId":null,"con":1},"SIR":{"id":"SIR","name":"Sion","location":{"lat":46.233122,"lon":7.360626},"countryName":"Switzerland","iata":"SIR","rank":127,"countryId":"CH","dest":"g1134698","airports":["SIR"],"images":[],"popularity":5.731667965335272,"regId":"central-europe","contId":"europe","subId":null,"terId":null,"con":1},"BHB":{"id":"BHB","name":"Bar Harbor","location":{"lat":44.387612,"lon":-68.203912},"countryName":"United States","iata":"BHB","rank":81,"countryId":"US","dest":"g60709","airports":["BHB"],"images":[],"popularity":6.007856857712589,"regId":"northern-america","contId":"north-america","subId":"ME_US","terId":null,"con":3},"BHE":{"id":"BHE","name":"Blenheim","location":{"lat":-41.513442,"lon":173.96125},"countryName":"New Zealand","iata":"BHE","rank":105,"countryId":"NZ","dest":"g255117","airports":["BHE"],"images":[],"popularity":6.5275865185137985,"regId":"australasia","contId":"oceania","subId":null,"terId":null,"con":2},"SIT":{"id":"SIT","name":"Sitka","location":{"lat":57.053056,"lon":-135.33},"countryName":"United States","iata":"SIT","rank":112,"countryId":"US","dest":null,"airports":["SIT"],"images":["1.jpg","2.jpg"],"popularity":5.00001,"regId":"northern-america","contId":"north-america","subId":"AK_US","terId":null,"con":3},"BHI":{"id":"BHI","name":"Bahía Blanca","location":{"lat":-38.718318,"lon":-62.266348},"countryName":"Argentina","iata":"BHI","rank":127,"countryId":"AR","dest":"g312744","airports":["BHI"],"images":[],"popularity":6.6128247053702305,"regId":"southern-america","contId":"south-america","subId":"BA_AR","terId":null,"con":4},"BHH":{"id":"BHH","name":"Bisha","location":{"lat":19.976352,"lon":42.590167},"countryName":"Saudi Arabia","iata":"BHH","rank":102,"countryId":"SA","dest":null,"airports":["BHH"],"images":["2.jpg","15.jpg"],"popularity":5.00001,"regId":"western-asia","contId":"asia","subId":null,"terId":null,"con":3},"BHK":{"id":"BHK","name":"Bukhara","location":{"lat":39.768083,"lon":64.455577},"countryName":"Uzbekistan","iata":"BHK","rank":60,"countryId":"UZ","dest":"g303936","airports":["BHK"],"images":[],"popularity":8.747220141399698,"regId":"central-asia","contId":"asia","subId":null,"terId":null,"con":4},"BHJ":{"id":"BHJ","name":"Bhuj","location":{"lat":23.242,"lon":69.666932},"countryName":"India","iata":"BHJ","rank":127,"countryId":"IN","dest":"g303878","airports":["BHJ"],"images":[],"popularity":5.766994202323216,"regId":"southern-asia","contId":"asia","subId":null,"terId":null,"con":1},"BHM":{"id":"BHM","name":"Birmingham","location":{"lat":33.520661,"lon":-86.80249},"countryName":"United States","iata":"BHM","rank":17,"countryId":"US","dest":"g30375","airports":["BHM"],"images":[],"popularity":5.981039643608458,"regId":"northern-america","contId":"north-america","subId":"AL_US","terId":null,"con":17},"BHO":{"id":"BHO","name":"Bhopal","location":{"lat":23.259933,"lon":77.412615},"countryName":"India","iata":"BHO","rank":79,"countryId":"IN","dest":"g319726","airports":["BHO"],"images":[],"popularity":5.865786370805075,"regId":"southern-asia","contId":"asia","subId":null,"terId":null,"con":10},"BHQ":{"id":"BHQ","name":"Broken Hill","location":{"lat":-31.953913,"lon":141.45394},"countryName":"Australia","iata":"BHQ","rank":127,"countryId":"AU","dest":"g255318","airports":["BHQ"],"images":[],"popularity":5.61606246386982,"regId":"australasia","contId":"oceania","subId":"NS_AU","terId":null,"con":5},"SJD":{"id":"SJD","name":"San José del Cabo","location":{"lat":23.063656,"lon":-109.702438},"countryName":"Mexico","iata":"SJD","rank":21,"countryId":"MX","dest":"g152516","airports":["SJD"],"images":[],"popularity":8.232566809723174,"regId":"central-america","contId":"north-america","subId":null,"terId":null,"con":36},"BHS":{"id":"BHS","name":"Bathurst","location":{"lat":-33.419282,"lon":149.577501},"countryName":"Australia","iata":"BHS","rank":127,"countryId":"AU","dest":"g255317","airports":["BHS"],"images":[],"popularity":5.615010300718859,"regId":"australasia","contId":"oceania","subId":"NS_AU","terId":null,"con":2},"SJC":{"id":"SJC","name":"San Jose","location":{"lat":37.338208,"lon":-121.886329},"countryName":"United States","iata":"SJC","rank":6,"countryId":"US","dest":"g33020","airports":["SJC"],"images":[],"popularity":5.981199426157044,"regId":"northern-america","contId":"north-america","subId":"CA_US","terId":null,"con":48},"BHR":{"id":"BHR","name":"Bharatpur","location":{"lat":27.648664,"lon":84.417267},"countryName":"Nepal","iata":"BHR","rank":127,"countryId":"NP","dest":null,"airports":["BHR"],"images":["5.jpg","6.jpg"],"popularity":7.401790612744166,"regId":"southern-asia","contId":"asia","subId":null,"terId":null,"con":2},"BHU":{"id":"BHU","name":"Bhavnagar","location":{"lat":21.764473,"lon":72.15193},"countryName":"India","iata":"BHU","rank":125,"countryId":"IN","dest":null,"airports":["BHU"],"images":["2.jpg","5.jpg"],"popularity":5.00001,"regId":"southern-asia","contId":"asia","subId":null,"terId":null,"con":1},"SJE":{"id":"SJE","name":"San José del Guaviare","location":{"lat":2.568549,"lon":-72.641727},"countryName":"Colombia","iata":"SJE","rank":127,"countryId":"CO","dest":null,"airports":["SJE"],"images":["8.jpg","10.jpg"],"popularity":5.00001,"regId":"southern-america","contId":"south-america","subId":null,"terId":null,"con":1},"BHV":{"id":"BHV","name":"Bahawalpur","location":{"lat":29.395722,"lon":71.683333},"countryName":"Pakistan","iata":"BHV","rank":127,"countryId":"PK","dest":"g1459874","airports":["BHV"],"images":[],"popularity":7.476823490695494,"regId":"southern-asia","contId":"asia","subId":null,"terId":null,"con":2},"SJJ":{"id":"SJJ","name":"Sarajevo","location":{"lat":43.856259,"lon":18.413076},"countryName":"Bosnia & Herzegovina","iata":"SJJ","rank":29,"countryId":"BA","dest":"g294450","airports":["SJJ"],"images":[],"popularity":8.746869745369208,"regId":"southern-europe","contId":"europe","subId":null,"terId":null,"con":19},"BHY":{"id":"BHY","name":"Beihai","location":{"lat":21.481291,"lon":109.120161},"countryName":"China","iata":"BHY","rank":127,"countryId":"CN","dest":"g297420","airports":["BHY"],"images":[],"popularity":6.076365007885583,"regId":"eastern-asia","contId":"asia","subId":null,"terId":null,"con":24},"BHX":{"id":"BHX","name":"Birmingham","location":{"lat":52.486243,"lon":-1.890401},"countryName":"United Kingdom","iata":"BHX","rank":4,"countryId":"GB","dest":"g186402","airports":["BHX"],"images":[],"popularity":8.65571734379763,"regId":"northern-europe","contId":"europe","subId":null,"terId":null,"con":120},"SJI":{"id":"SJI","name":"San Jose, Occidental Mindoro","location":{"lat":12.347433,"lon":121.065917},"countryName":"Philippines","iata":"SJI","rank":67,"countryId":"PH","dest":"g8762949","airports":["EUQ","SJI"],"images":[],"popularity":5.577428875594623,"regId":"south-eastern-asia","contId":"asia","subId":null,"terId":null,"con":2},"BHZ":{"id":"BHZ","name":"Belo Horizonte","location":{"lat":-19.924502,"lon":-43.935238},"countryName":"Brazil","iata":"BHZ","rank":64,"countryId":"BR","dest":"g303374","airports":["PLU","CNF"],"images":[],"popularity":8.394505839765042,"regId":"southern-america","contId":"south-america","subId":"MG_BR","terId":null,"con":44},"SJK":{"id":"SJK","name":"Sao Jose Dos Campos","location":{"lat":-23.2237,"lon":-45.9009},"countryName":"Brazil","iata":"SJK","rank":897,"countryId":"BR","dest":"g303629","airports":["SJK"],"images":[],"popularity":5.908207629486196,"regId":"southern-america","contId":"south-america","subId":"SP_BR","terId":null,"con":2},"SJP":{"id":"SJP","name":"São José do Rio Preto","location":{"lat":-20.811761,"lon":-49.376227},"countryName":"Brazil","iata":"SJP","rank":100,"countryId":"BR","dest":"g303628","airports":["SJP"],"images":[],"popularity":5.635780125480617,"regId":"southern-america","contId":"south-america","subId":"SP_BR","terId":null,"con":3},"SJO":{"id":"SJO","name":"San José","location":{"lat":9.928069,"lon":-84.090725},"countryName":"Costa Rica","iata":"SJO","rank":10,"countryId":"CR","dest":"g309293","airports":["SJO"],"images":[],"popularity":7.529240359886468,"regId":"central-america","contId":"north-america","subId":null,"terId":null,"con":43},"BIA":{"id":"BIA","name":"Bastia","location":{"lat":42.697283,"lon":9.450881},"countryName":"France","iata":"BIA","rank":54,"countryId":"FR","dest":"g187141","airports":["BIA"],"images":[],"popularity":6.005724469951974,"regId":"western-europe","contId":"europe","subId":null,"terId":null,"con":31},"SJT":{"id":"SJT","name":"San Angelo","location":{"lat":31.463772,"lon":-100.437038},"countryName":"United States","iata":"SJT","rank":73,"countryId":"US","dest":null,"airports":["SJT"],"images":["3.jpg","5.jpg"],"popularity":5.00001,"regId":"northern-america","contId":"north-america","subId":"TX_US","terId":null,"con":1},"BID":{"id":"BID","name":"Block Island","location":{"lat":41.168056,"lon":-71.577778},"countryName":"United States","iata":"BID","rank":1024,"countryId":"US","dest":null,"airports":["BID"],"images":[],"popularity":5.00001,"regId":"northern-america","contId":"north-america","subId":"RI_US","terId":null,"con":1},"SJU":{"id":"SJU","name":"San Juan","location":{"lat":18.465539,"lon":-66.105735},"countryName":"United States","iata":"SJU","rank":5,"countryId":"US","dest":"g147320","airports":["SJU","SIG"],"images":[],"popularity":9.35686974536921,"regId":"caribbean","contId":"north-america","subId":null,"terId":"PR","con":44},"SJW":{"id":"SJW","name":"Shijiazhuang","location":{"lat":38.042307,"lon":114.51486},"countryName":"China","iata":"SJW","rank":66,"countryId":"CN","dest":"g297431","airports":["SJW"],"images":[],"popularity":6.401895923794626,"regId":"eastern-asia","contId":"asia","subId":null,"terId":null,"con":51},"SJZ":{"id":"SJZ","name":"São Jorge Island","location":{"lat":38.640968,"lon":-28.030319},"countryName":"Portugal","iata":"SJZ","rank":92,"countryId":"PT","dest":null,"airports":["SJZ"],"images":["3.jpg","4.jpg"],"popularity":5.00001,"regId":"southern-europe","contId":"europe","subId":null,"terId":null,"con":2},"JYR":{"id":"JYR","name":"Jiroft","location":{"lat":28.669737,"lon":57.737338},"countryName":"Iran","iata":"JYR","rank":1024,"countryId":"IR","dest":null,"airports":["JYR"],"images":[],"popularity":5.00001,"regId":"southern-asia","contId":"asia","subId":null,"terId":null,"con":1},"BIL":{"id":"BIL","name":"Billings","location":{"lat":45.783286,"lon":-108.50069},"countryName":"United States","iata":"BIL","rank":33,"countryId":"US","dest":"g45086","airports":["BIL"],"images":[],"popularity":5.980000315141973,"regId":"northern-america","contId":"north-america","subId":"MT_US","terId":null,"con":15},"BIK":{"id":"BIK","name":"Biak","location":{"lat":-1.038102,"lon":135.980085},"countryName":"Indonesia","iata":"BIK","rank":127,"countryId":"ID","dest":null,"airports":["BIK"],"images":["6.png","7.jpg"],"popularity":5.00001,"regId":"south-eastern-asia","contId":"asia","subId":null,"terId":null,"con":3},"JYV":{"id":"JYV","name":"Jyväskylä","location":{"lat":62.242603,"lon":25.747257},"countryName":"Finland","iata":"JYV","rank":127,"countryId":"FI","dest":"g189942","airports":["JYV"],"images":[],"popularity":7.4263641334428145,"regId":"northern-europe","contId":"europe","subId":null,"terId":null,"con":2},"BIN":{"id":"BIN","name":"Bamyan","location":{"lat":34.810007,"lon":67.82121},"countryName":"Afghanistan","iata":"BIN","rank":1024,"countryId":"AF","dest":null,"airports":["BIN"],"images":[],"popularity":5.00001,"regId":"southern-asia","contId":"asia","subId":null,"terId":null,"con":1},"BIM":{"id":"BIM","name":"Bimini","location":{"lat":25.733298,"lon":-79.272937},"countryName":"Bahamas","iata":"BIM","rank":123,"countryId":"BS","dest":"g147426","airports":["BIM"],"images":[],"popularity":5.196237785232076,"regId":"caribbean","contId":"north-america","subId":null,"terId":null,"con":1},"BIO":{"id":"BIO","name":"Bilbao","location":{"lat":43.263013,"lon":-2.934985},"countryName":"Spain","iata":"BIO","rank":15,"countryId":"ES","dest":"g187454","airports":["BIO"],"images":[],"popularity":6.269683070883417,"regId":"southern-europe","contId":"europe","subId":null,"terId":null,"con":53},"BIR":{"id":"BIR","name":"Biratnagar","location":{"lat":26.452475,"lon":87.271781},"countryName":"Nepal","iata":"BIR","rank":127,"countryId":"NP","dest":null,"airports":["BIR"],"images":["2.jpg","4.jpg"],"popularity":5.00001,"regId":"southern-asia","contId":"asia","subId":null,"terId":null,"con":3},"BIQ":{"id":"BIQ","name":"Biarritz","location":{"lat":43.483152,"lon":-1.558626},"countryName":"France","iata":"BIQ","rank":25,"countryId":"FR","dest":"g187080","airports":["BIQ"],"images":[],"popularity":7.250780642540361,"regId":"western-europe","contId":"europe","subId":null,"terId":null,"con":16},"SKB":{"id":"SKB","name":"Saint Kitts","location":{"lat":17.34338,"lon":-62.755904},"countryName":"St. Kitts & Nevis","iata":"SKB","rank":59,"countryId":"KN","dest":"g147374","airports":["SKB"],"images":[],"popularity":8.366869745369208,"regId":"caribbean","contId":"north-america","subId":null,"terId":null,"con":10},"SKD":{"id":"SKD","name":"Samarkand","location":{"lat":39.627012,"lon":66.974973},"countryName":"Uzbekistan","iata":"SKD","rank":57,"countryId":"UZ","dest":"g298068","airports":["SKD"],"images":[],"popularity":8.934753143590388,"regId":"central-asia","contId":"asia","subId":null,"terId":null,"con":5},"BIS":{"id":"BIS","name":"Bismarck","location":{"lat":46.808327,"lon":-100.783739},"countryName":"United States","iata":"BIS","rank":58,"countryId":"US","dest":null,"airports":["BIS"],"images":["1.jpg","2.jpg"],"popularity":5.00001,"regId":"northern-america","contId":"north-america","subId":"ND_US","terId":null,"con":7},"SKG":{"id":"SKG","name":"Thessaloniki","location":{"lat":40.640063,"lon":22.944419},"countryName":"Greece","iata":"SKG","rank":13,"countryId":"GR","dest":"g189473","airports":["SKG"],"images":[],"popularity":6.963638004402968,"regId":"southern-europe","contId":"europe","subId":null,"terId":null,"con":90},"SKH":{"id":"SKH","name":"Surkhet","location":{"lat":28.6,"lon":81.616667},"countryName":"Nepal","iata":"SKH","rank":127,"countryId":"NP","dest":null,"airports":["SKH"],"images":["1.jpg","3.jpg"],"popularity":5.00001,"regId":"southern-asia","contId":"asia","subId":null,"terId":null,"con":1},"SKK":{"id":"SKK","name":"Shaktoolik","location":{"lat":64.333889,"lon":-161.153889},"countryName":"United States","iata":"SKK","rank":127,"countryId":"US","dest":null,"airports":["SKK"],"images":["2.jpg","4.jpg"],"popularity":5.00001,"regId":"northern-america","contId":"north-america","subId":"AK_US","terId":null,"con":1},"SKO":{"id":"SKO","name":"Sokoto","location":{"lat":13.005873,"lon":5.247552},"countryName":"Nigeria","iata":"SKO","rank":127,"countryId":"NG","dest":null,"airports":["SKO"],"images":["9.JPG","12.jpg"],"popularity":5.00001,"regId":"western-africa","contId":"africa","subId":null,"terId":null,"con":1},"SKN":{"id":"SKN","name":"Stokmarknes","location":{"lat":68.564838,"lon":14.909872},"countryName":"Norway","iata":"SKN","rank":127,"countryId":"NO","dest":null,"airports":["SKN"],"images":["2.jpg","3.jpg"],"popularity":5.00001,"regId":"northern-europe","contId":"europe","subId":null,"terId":null,"con":3},"BJA":{"id":"BJA","name":"Béjaïa","location":{"lat":36.75089,"lon":5.056733},"countryName":"Algeria","iata":"BJA","rank":74,"countryId":"DZ","dest":"g1903178","airports":["BJA"],"images":[],"popularity":7.832595277214129,"regId":"northern-africa","contId":"africa","subId":null,"terId":null,"con":6},"JZH":{"id":"JZH","name":"Jiuzhaigou County","location":{"lat":33.252056,"lon":104.243841},"countryName":"China","iata":"JZH","rank":127,"countryId":"CN","dest":"g303770","airports":["JZH"],"images":[],"popularity":6.576871056300195,"regId":"eastern-asia","contId":"asia","subId":null,"terId":null,"con":2},"SKP":{"id":"SKP","name":"Skopje","location":{"lat":41.997346,"lon":21.427996},"countryName":"Macedonia (FYROM)","iata":"SKP","rank":28,"countryId":"MK","dest":"g295110","airports":["SKP"],"images":[],"popularity":8.676869745369208,"regId":"southern-europe","contId":"europe","subId":null,"terId":null,"con":41},"BJB":{"id":"BJB","name":"Bojnord","location":{"lat":37.470206,"lon":57.314335},"countryName":"Iran","iata":"BJB","rank":127,"countryId":"IR","dest":null,"airports":["BJB"],"images":["2.jpg","3.jpg"],"popularity":5.00001,"regId":"southern-asia","contId":"asia","subId":null,"terId":null,"con":1},"SKU":{"id":"SKU","name":"Skyros","location":{"lat":38.816296,"lon":24.595536},"countryName":"Greece","iata":"SKU","rank":123,"countryId":"GR","dest":"g189500","airports":["SKU"],"images":[],"popularity":5.860000001108459,"regId":"southern-europe","contId":"europe","subId":null,"terId":null,"con":2},"SKT":{"id":"SKT","name":"Sialkot","location":{"lat":32.492477,"lon":74.53104},"countryName":"Pakistan","iata":"SKT","rank":58,"countryId":"PK","dest":null,"airports":["SKT"],"images":["4.jpg","8.jpg"],"popularity":5.00001,"regId":"southern-asia","contId":"asia","subId":null,"terId":null,"con":13},"BJF":{"id":"BJF","name":"Båtsfjord","location":{"lat":70.634501,"lon":29.717845},"countryName":"Norway","iata":"BJF","rank":127,"countryId":"NO","dest":null,"airports":["BJF"],"images":["4.jpg","8.jpg"],"popularity":5.00001,"regId":"northern-europe","contId":"europe","subId":null,"terId":null,"con":3},"BJI":{"id":"BJI","name":"Bemidji","location":{"lat":47.487536,"lon":-94.885849},"countryName":"United States","iata":"BJI","rank":89,"countryId":"US","dest":null,"airports":["BJI"],"images":["3.JPG","5.jpg"],"popularity":5.00001,"regId":"northern-america","contId":"north-america","subId":"MN_US","terId":null,"con":1},"SKX":{"id":"SKX","name":"Saransk","location":{"lat":54.200048,"lon":45.174512},"countryName":"Russia","iata":"SKX","rank":57,"countryId":"RU","dest":"g1087654","airports":["SKX"],"images":[],"popularity":5.997426752731467,"regId":"eastern-europe","contId":"europe","subId":"VL_RU","terId":null,"con":4},"SKZ":{"id":"SKZ","name":"Sukkur","location":{"lat":27.706604,"lon":68.848197},"countryName":"Pakistan","iata":"SKZ","rank":127,"countryId":"PK","dest":null,"airports":["SKZ"],"images":["3.jpg","7.jpg"],"popularity":5.00001,"regId":"southern-asia","contId":"asia","subId":null,"terId":null,"con":3},"BJM":{"id":"BJM","name":"Bujumbura","location":{"lat":-3.361378,"lon":29.359878},"countryName":"Burundi","iata":"BJM","rank":83,"countryId":"BI","dest":"g293771","airports":["BJM"],"images":[],"popularity":8.396869745369209,"regId":"eastern-africa","contId":"africa","subId":null,"terId":null,"con":6},"BJL":{"id":"BJL","name":"Banjul","location":{"lat":13.454876,"lon":-16.579032},"countryName":"Gambia","iata":"BJL","rank":35,"countryId":"GM","dest":"g293795","airports":["BJL"],"images":[],"popularity":8.416869745369208,"regId":"western-africa","contId":"africa","subId":null,"terId":null,"con":16},"SLA":{"id":"SLA","name":"Salta","location":{"lat":-24.782127,"lon":-65.423198},"countryName":"Argentina","iata":"SLA","rank":68,"countryId":"AR","dest":"g312822","airports":["SLA"],"images":[],"popularity":8.354505839765043,"regId":"southern-america","contId":"south-america","subId":"SA_AR","terId":null,"con":10},"BJS":{"id":"BJS","name":"Beijing","location":{"lat":39.904211,"lon":116.407395},"countryName":"China","iata":"BJS","rank":23,"countryId":"CN","dest":"g294212","airports":["PEK","PKX","NAY"],"images":[],"popularity":9.732727272727272,"regId":"eastern-asia","contId":"asia","subId":null,"terId":null,"con":239},"BJR":{"id":"BJR","name":"Bahir Dar","location":{"lat":11.574209,"lon":37.361353},"countryName":"Ethiopia","iata":"BJR","rank":94,"countryId":"ET","dest":"g480192","airports":["BJR"],"images":[],"popularity":8.269752066115702,"regId":"eastern-africa","contId":"africa","subId":null,"terId":null,"con":3},"SLC":{"id":"SLC","name":"Salt Lake City","location":{"lat":40.760779,"lon":-111.891047},"countryName":"United States","iata":"SLC","rank":3,"countryId":"US","dest":"g60922","airports":["SLC"],"images":[],"popularity":6.024863747914702,"regId":"northern-america","contId":"north-america","subId":"UT_US","terId":null,"con":100},"BJT":{"id":"BJT","name":"Bentota","location":{"lat":6.418918,"lon":80.005979},"countryName":"Sri Lanka","iata":"BJT","rank":127,"countryId":"LK","dest":"g297895","airports":["BJT"],"images":[],"popularity":6.039591056053366,"regId":"southern-asia","contId":"asia","subId":null,"terId":null,"con":1},"BJW":{"id":"BJW","name":"Bajawa","location":{"lat":-8.792325,"lon":120.960602},"countryName":"Indonesia","iata":"BJW","rank":127,"countryId":"ID","dest":"g297730","airports":["BJW"],"images":[],"popularity":5.750642543483847,"regId":"south-eastern-asia","contId":"asia","subId":null,"terId":null,"con":1},"SLH":{"id":"SLH","name":"Sola","location":{"lat":-13.873745,"lon":167.549045},"countryName":"Vanuatu","iata":"SLH","rank":127,"countryId":"VU","dest":null,"airports":["SLH"],"images":["4.jpg","6.jpg"],"popularity":5.00001,"regId":"melanesia","contId":"oceania","subId":null,"terId":null,"con":1},"BJV":{"id":"BJV","name":"Bodrum","location":{"lat":37.034407,"lon":27.43054},"countryName":"Turkey","iata":"BJV","rank":14,"countryId":"TR","dest":"g298658","airports":["BJV"],"images":[],"popularity":8.069606190657431,"regId":"western-asia","contId":"asia","subId":null,"terId":null,"con":39},"SLI":{"id":"SLI","name":"Solwezi","location":{"lat":-12.360981,"lon":26.230462},"countryName":"Zambia","iata":"SLI","rank":127,"countryId":"ZM","dest":null,"airports":["SLI"],"images":["3.jpg","4.jpg"],"popularity":5.00001,"regId":"eastern-africa","contId":"africa","subId":null,"terId":null,"con":2},"BJX":{"id":"BJX","name":"León","location":{"lat":21.125008,"lon":-101.68596},"countryName":"Mexico","iata":"BJX","rank":30,"countryId":"MX","dest":"g154240","airports":["BJX"],"images":[],"popularity":6.39981079033074,"regId":"central-america","contId":"north-america","subId":null,"terId":null,"con":19},"SLL":{"id":"SLL","name":"Salalah","location":{"lat":17.050667,"lon":54.106586},"countryName":"Oman","iata":"SLL","rank":69,"countryId":"OM","dest":"g298419","airports":["SLL"],"images":[],"popularity":8.725123940710509,"regId":"western-asia","contId":"asia","subId":null,"terId":null,"con":9},"BJZ":{"id":"BJZ","name":"Badajoz","location":{"lat":38.879449,"lon":-6.970654},"countryName":"Spain","iata":"BJZ","rank":127,"countryId":"ES","dest":"g262058","airports":["BJZ"],"images":[],"popularity":5.970000034137475,"regId":"southern-europe","contId":"europe","subId":null,"terId":null,"con":4},"SLK":{"id":"SLK","name":"Saranac Lake","location":{"lat":44.329496,"lon":-74.131266},"countryName":"United States","iata":"SLK","rank":127,"countryId":"US","dest":null,"airports":["SLK"],"images":["1.jpg","3.jpg"],"popularity":5.980006978603392,"regId":"northern-america","contId":"north-america","subId":"NY_US","terId":null,"con":1},"SLN":{"id":"SLN","name":"Salina","location":{"lat":38.84028,"lon":-97.611424},"countryName":"United States","iata":"SLN","rank":97,"countryId":"US","dest":null,"airports":["SLN"],"images":["3.jpg","4.png"],"popularity":5.00001,"regId":"northern-america","contId":"north-america","subId":"KS_US","terId":null,"con":3},"SLM":{"id":"SLM","name":"Salamanca","location":{"lat":40.970104,"lon":-5.66354},"countryName":"Spain","iata":"SLM","rank":124,"countryId":"ES","dest":"g187493","airports":["SLM"],"images":[],"popularity":5.994145381360256,"regId":"southern-europe","contId":"europe","subId":null,"terId":null,"con":1},"SLP":{"id":"SLP","name":"San Luis Potosí","location":{"lat":22.15647,"lon":-100.985541},"countryName":"Mexico","iata":"SLP","rank":46,"countryId":"MX","dest":"g153477","airports":["SLP"],"images":[],"popularity":6.3534643548461265,"regId":"central-america","contId":"north-america","subId":null,"terId":null,"con":8},"BKB":{"id":"BKB","name":"Bikaner","location":{"lat":28.0175,"lon":73.314722},"countryName":"India","iata":"BKB","rank":127,"countryId":"IN","dest":"g297666","airports":["BKB"],"images":[],"popularity":5.793706797832232,"regId":"southern-asia","contId":"asia","subId":null,"terId":null,"con":1},"SLQ":{"id":"SLQ","name":"Sleetmute","location":{"lat":61.7025,"lon":-157.169722},"countryName":"United States","iata":"SLQ","rank":127,"countryId":"US","dest":null,"airports":["SLQ"],"images":["16.jpg","21.jpg"],"popularity":5.00001,"regId":"northern-america","contId":"north-america","subId":"AK_US","terId":null,"con":1},"BKC":{"id":"BKC","name":"Buckland","location":{"lat":65.979722,"lon":-161.123055},"countryName":"United States","iata":"BKC","rank":127,"countryId":"US","dest":null,"airports":["BKC"],"images":["12.jpg","15.jpg"],"popularity":5.00001,"regId":"northern-america","contId":"north-america","subId":"AK_US","terId":null,"con":1},"SLV":{"id":"SLV","name":"Shimla","location":{"lat":31.1048,"lon":77.1734},"countryName":"India","iata":"SLV","rank":464,"countryId":"IN","dest":"g304552","airports":["SLV"],"images":[],"popularity":6.707243157430774,"regId":"southern-asia","contId":"asia","subId":null,"terId":null,"con":1},"SLU":{"id":"SLU","name":"Saint Lucia","location":{"lat":13.909444,"lon":-60.978893},"countryName":"St. Lucia","iata":"SLU","rank":30,"countryId":"LC","dest":null,"airports":["UVF","SLU"],"images":["3.jpg","4.jpg"],"popularity":8.60686974536921,"regId":"caribbean","contId":"north-america","subId":null,"terId":null,"con":16},"SLX":{"id":"SLX","name":"Salt Cay, Turks Islands","location":{"lat":21.329294,"lon":-71.207232},"countryName":"Turks & Caicos Islands","iata":"SLX","rank":127,"countryId":"TC","dest":null,"airports":["SLX"],"images":["9.png","12.jpg"],"popularity":5.00001,"regId":"caribbean","contId":"north-america","subId":null,"terId":null,"con":1},"BKG":{"id":"BKG","name":"Branson","location":{"lat":36.643673,"lon":-93.218514},"countryName":"United States","iata":"BKG","rank":49,"countryId":"US","dest":"g44160","airports":["BKG"],"images":[],"popularity":6.596871056300196,"regId":"northern-america","contId":"north-america","subId":"MO_US","terId":null,"con":1},"SLW":{"id":"SLW","name":"Saltillo","location":{"lat":25.43208,"lon":-100.983661},"countryName":"Mexico","iata":"SLW","rank":122,"countryId":"MX","dest":"g150785","airports":["SLW"],"images":[],"popularity":6.030801659541555,"regId":"central-america","contId":"north-america","subId":null,"terId":null,"con":1},"SLZ":{"id":"SLZ","name":"São Luís","location":{"lat":-2.53911,"lon":-44.282905},"countryName":"Brazil","iata":"SLZ","rank":88,"countryId":"BR","dest":"g673267","airports":["SLZ"],"images":[],"popularity":5.961723567086024,"regId":"southern-america","contId":"south-america","subId":"MA_BR","terId":null,"con":9},"BKI":{"id":"BKI","name":"Kota Kinabalu","location":{"lat":5.980408,"lon":116.073457},"countryName":"Malaysia","iata":"BKI","rank":21,"countryId":"MY","dest":"g298307","airports":["BKI"],"images":[],"popularity":8.76807299099748,"regId":"south-eastern-asia","contId":"asia","subId":null,"terId":null,"con":39},"SLY":{"id":"SLY","name":"Salekhard","location":{"lat":66.550073,"lon":66.602811},"countryName":"Russia","iata":"SLY","rank":49,"countryId":"RU","dest":null,"airports":["SLY"],"images":["6.jpg","7.jpg"],"popularity":5.00001,"regId":"central-asia","contId":"asia","subId":"UR_RU","terId":null,"con":13},"BKK":{"id":"BKK","name":"Bangkok","location":{"lat":13.756331,"lon":100.501765},"countryName":"Thailand","iata":"BKK","rank":2,"countryId":"TH","dest":"g293916","airports":["DMK","BKK"],"images":[],"popularity":9.85686974536921,"regId":"south-eastern-asia","contId":"asia","subId":null,"terId":null,"con":179},"BKN":{"id":"BKN","name":"Balkanabat","location":{"lat":39.523873,"lon":54.336},"countryName":"Turkmenistan","iata":"BKN","rank":118,"countryId":"TM","dest":null,"airports":["BKN"],"images":["6.jpg","7.jpg"],"popularity":5.00001,"regId":"central-asia","contId":"asia","subId":null,"terId":null,"con":1},"BKM":{"id":"BKM","name":"Ba kelalan","location":{"lat":4.008867,"lon":115.609553},"countryName":"Malaysia","iata":"BKM","rank":127,"countryId":"MY","dest":null,"airports":["BKM"],"images":["3.jpg","5.JPG"],"popularity":5.00001,"regId":"south-eastern-asia","contId":"asia","subId":null,"terId":null,"con":2},"SMA":{"id":"SMA","name":"Santa Maria Island","location":{"lat":36.9788,"lon":-25.105905},"countryName":"Portugal","iata":"SMA","rank":127,"countryId":"PT","dest":null,"airports":["SMA"],"images":["2.jpg","3.jpg"],"popularity":5.00001,"regId":"southern-europe","contId":"europe","subId":null,"terId":null,"con":2},"BKO":{"id":"BKO","name":"Bamako","location":{"lat":12.639232,"lon":-8.002889},"countryName":"Mali","iata":"BKO","rank":66,"countryId":"ML","dest":"g293813","airports":["BKO"],"images":[],"popularity":8.44686974536921,"regId":"western-africa","contId":"africa","subId":null,"terId":null,"con":15},"BKQ":{"id":"BKQ","name":"Blackall","location":{"lat":-24.416667,"lon":145.466667},"countryName":"Australia","iata":"BKQ","rank":127,"countryId":"AU","dest":null,"airports":["BKQ"],"images":["6.jpg","7.JPG"],"popularity":5.00001,"regId":"australasia","contId":"oceania","subId":"QL_AU","terId":null,"con":1},"BKS":{"id":"BKS","name":"Bengkulu","location":{"lat":-3.792845,"lon":102.260764},"countryName":"Indonesia","iata":"BKS","rank":109,"countryId":"ID","dest":null,"airports":["BKS"],"images":["11.jpg","17.jpg"],"popularity":5.00001,"regId":"south-eastern-asia","contId":"asia","subId":null,"terId":null,"con":6},"SMG":{"id":"SMG","name":"Santa Maria","location":{"lat":-12.416667,"lon":-76.783333},"countryName":"Peru","iata":"SMG","rank":127,"countryId":"PE","dest":null,"airports":["SMG"],"images":["13.jpg","15.jpg"],"popularity":5.00001,"regId":"southern-america","contId":"south-america","subId":null,"terId":null,"con":1},"SMI":{"id":"SMI","name":"Samos","location":{"lat":37.754786,"lon":26.97777},"countryName":"Greece","iata":"SMI","rank":16,"countryId":"GR","dest":null,"airports":["SMI"],"images":["4.jpg","5.jpg"],"popularity":5.860000267781135,"regId":"southern-europe","contId":"europe","subId":null,"terId":null,"con":12},"BKW":{"id":"BKW","name":"Beckley","location":{"lat":37.77817,"lon":-81.188156},"countryName":"United States","iata":"BKW","rank":127,"countryId":"US","dest":null,"airports":["BKW"],"images":["2.jpg","3.jpg"],"popularity":5.00001,"regId":"northern-america","contId":"north-america","subId":"WV_US","terId":null,"con":2},"BKZ":{"id":"BKZ","name":"Bukoba","location":{"lat":-1.329641,"lon":31.805013},"countryName":"Tanzania","iata":"BKZ","rank":112,"countryId":"TZ","dest":null,"airports":["BKZ"],"images":["6.jpg","7.jpg"],"popularity":5.00001,"regId":"eastern-africa","contId":"africa","subId":null,"terId":null,"con":2},"SMK":{"id":"SMK","name":"St. Michael","location":{"lat":63.478056,"lon":-162.039167},"countryName":"United States","iata":"SMK","rank":127,"countryId":"US","dest":null,"airports":["SMK"],"images":["8.jpg","14.jpg"],"popularity":5.00001,"regId":"northern-america","contId":"north-america","subId":"AK_US","terId":null,"con":1},"BKY":{"id":"BKY","name":"Bukavu","location":{"lat":-2.512302,"lon":28.848028},"countryName":"Democratic Republic of the Congo","iata":"BKY","rank":127,"countryId":"CD","dest":"g311291","airports":["BKY"],"images":[],"popularity":7.959752066115703,"regId":"central-africa","contId":"africa","subId":null,"terId":null,"con":1},"SML":{"id":"SML","name":"Stella Maris","location":{"lat":23.593071,"lon":-75.266136},"countryName":"Bahamas","iata":"SML","rank":127,"countryId":"BS","dest":null,"airports":["SML"],"images":["1.jpg","3.jpg"],"popularity":5.00001,"regId":"caribbean","contId":"north-america","subId":null,"terId":null,"con":1},"BLA":{"id":"BLA","name":"Barcelona","location":{"lat":10.144569,"lon":-64.67768},"countryName":"Venezuela","iata":"BLA","rank":49,"countryId":"VE","dest":null,"airports":["BLA"],"images":["3.jpg","4.jpg"],"popularity":5.00001,"regId":"southern-america","contId":"south-america","subId":null,"terId":null,"con":2},"SMQ":{"id":"SMQ","name":"Sampit","location":{"lat":-2.539465,"lon":112.958686},"countryName":"Indonesia","iata":"SMQ","rank":127,"countryId":"ID","dest":null,"airports":["SMQ"],"images":["18.png","23.JPG"],"popularity":5.00001,"regId":"south-eastern-asia","contId":"asia","subId":null,"terId":null,"con":4},"SMS":{"id":"SMS","name":"Île Sainte-Marie","location":{"lat":-16.89442,"lon":49.90594},"countryName":"Madagascar","iata":"SMS","rank":127,"countryId":"MG","dest":"g303986","airports":["SMS"],"images":[],"popularity":8.039752066115703,"regId":"eastern-africa","contId":"africa","subId":null,"terId":null,"con":1},"SMR":{"id":"SMR","name":"Santa Marta","location":{"lat":11.233109,"lon":-74.192919},"countryName":"Colombia","iata":"SMR","rank":51,"countryId":"CO","dest":"g297484","airports":["SMR"],"images":[],"popularity":8.600140285429097,"regId":"southern-america","contId":"south-america","subId":null,"terId":null,"con":4},"BLB":{"id":"BLB","name":"Balboa","location":{"lat":8.949996,"lon":-79.566664},"countryName":"Panama","iata":"BLB","rank":124,"countryId":"PA","dest":null,"airports":["BLB"],"images":["3.jpg","4.jpg"],"popularity":9.19686974536921,"regId":"central-america","contId":"north-america","subId":null,"terId":null,"con":1},"BLE":{"id":"BLE","name":"Borlänge","location":{"lat":60.484304,"lon":15.433969},"countryName":"Sweden","iata":"BLE","rank":127,"countryId":"SE","dest":"g226896","airports":["BLE"],"images":[],"popularity":6.2362837725072175,"regId":"northern-europe","contId":"europe","subId":null,"terId":null,"con":1},"SMT":{"id":"SMT","name":"Sorriso","location":{"lat":-12.542946,"lon":-55.721537},"countryName":"Brazil","iata":"SMT","rank":127,"countryId":"BR","dest":null,"airports":["SMT"],"images":["4.jpg","6.jpg"],"popularity":5.00001,"regId":"southern-america","contId":"south-america","subId":null,"terId":null,"con":1},"BLI":{"id":"BLI","name":"Bellingham","location":{"lat":48.751911,"lon":-122.478685},"countryName":"United States","iata":"BLI","rank":61,"countryId":"US","dest":null,"airports":["BLI"],"images":["2.jpg","3.jpg"],"popularity":5.00001,"regId":"northern-america","contId":"north-america","subId":"WA_US","terId":null,"con":10},"SMX":{"id":"SMX","name":"Santa Maria","location":{"lat":34.953034,"lon":-120.435719},"countryName":"United States","iata":"SMX","rank":75,"countryId":"US","dest":null,"airports":["SMX"],"images":["1.jpg","2.jpg"],"popularity":5.00001,"regId":"northern-america","contId":"north-america","subId":"CA_US","terId":null,"con":4},"BLK":{"id":"BLK","name":"Blackpool","location":{"lat":53.817505,"lon":-3.035675},"countryName":"United Kingdom","iata":"BLK","rank":82,"countryId":"GB","dest":"g186332","airports":["BLK"],"images":[],"popularity":8.141175054076857,"regId":"northern-europe","contId":"europe","subId":null,"terId":null,"con":1},"BLJ":{"id":"BLJ","name":"Batna","location":{"lat":35.561022,"lon":6.173912},"countryName":"Algeria","iata":"BLJ","rank":119,"countryId":"DZ","dest":null,"airports":["BLJ"],"images":["3.jpg","11.jpg"],"popularity":5.00001,"regId":"northern-africa","contId":"africa","subId":null,"terId":null,"con":4},"BLL":{"id":"BLL","name":"Billund","location":{"lat":55.728449,"lon":9.112366},"countryName":"Denmark","iata":"BLL","rank":8,"countryId":"DK","dest":"g189531","airports":["BLL"],"images":[],"popularity":7.032557153532143,"regId":"northern-europe","contId":"europe","subId":null,"terId":null,"con":51},"BLQ":{"id":"BLQ","name":"Bologna","location":{"lat":44.494887,"lon":11.342616},"countryName":"Italy","iata":"BLQ","rank":15,"countryId":"IT","dest":"g187801","airports":["BLQ"],"images":[],"popularity":8.312203297182508,"regId":"southern-europe","contId":"europe","subId":null,"terId":null,"con":98},"SNA":{"id":"SNA","name":"Santa Ana","location":{"lat":33.745573,"lon":-117.867834},"countryName":"United States","iata":"SNA","rank":11,"countryId":"US","dest":null,"airports":["SNA"],"images":["4.jpg","5.jpg"],"popularity":6.345203242805477,"regId":"northern-america","contId":"north-america","subId":"CA_US","terId":null,"con":26},"BLR":{"id":"BLR","name":"Bengaluru","location":{"lat":12.971599,"lon":77.594563},"countryName":"India","iata":"BLR","rank":24,"countryId":"IN","dest":"g297628","airports":["BLR"],"images":[],"popularity":9.189752066115702,"regId":"southern-asia","contId":"asia","subId":null,"terId":null,"con":75},"SNC":{"id":"SNC","name":"Salinas","location":{"lat":-2.223363,"lon":-80.958462},"countryName":"Ecuador","iata":"SNC","rank":123,"countryId":"EC","dest":"g297539","airports":["SNC"],"images":[],"popularity":6.577814903877435,"regId":"southern-america","contId":"south-america","subId":null,"terId":null,"con":1},"SNE":{"id":"SNE","name":"São Nicolau","location":{"lat":16.604861,"lon":-24.310372},"countryName":"Cape Verde","iata":"SNE","rank":127,"countryId":"CV","dest":null,"airports":["SNE"],"images":["1.jpg","3.jpg"],"popularity":5.00001,"regId":"western-africa","contId":"africa","subId":null,"terId":null,"con":2},"BLV":{"id":"BLV","name":"Belleville","location":{"lat":38.52005,"lon":-89.983993},"countryName":"United States","iata":"BLV","rank":54,"countryId":"US","dest":null,"airports":["BLV"],"images":["3.png","5.jpg"],"popularity":5.00001,"regId":"northern-america","contId":"north-america","subId":"IL_US","terId":null,"con":10},"BLZ":{"id":"BLZ","name":"Blantyre","location":{"lat":-15.766671,"lon":35.016787},"countryName":"Malawi","iata":"BLZ","rank":90,"countryId":"MW","dest":"g298274","airports":["BLZ"],"images":[],"popularity":8.218845279976462,"regId":"eastern-africa","contId":"africa","subId":null,"terId":null,"con":5},"SNN":{"id":"SNN","name":"Shannon, County Clare","location":{"lat":52.712471,"lon":-8.873068},"countryName":"Ireland","iata":"SNN","rank":47,"countryId":"IE","dest":"g212526","airports":["SNN"],"images":[],"popularity":7.151221848908309,"regId":"northern-europe","contId":"europe","subId":null,"terId":null,"con":23},"SNP":{"id":"SNP","name":"St. Paul","location":{"lat":57.122498,"lon":-170.279946},"countryName":"United States","iata":"SNP","rank":127,"countryId":"US","dest":null,"airports":["SNP"],"images":["4.jpg","12.jpg"],"popularity":5.00001,"regId":"northern-america","contId":"north-america","subId":"AK_US","terId":null,"con":1},"SNO":{"id":"SNO","name":"Sakon Nakhon","location":{"lat":17.166421,"lon":104.148606},"countryName":"Thailand","iata":"SNO","rank":90,"countryId":"TH","dest":null,"airports":["SNO"],"images":["8.jpg","11.jpg"],"popularity":5.00001,"regId":"south-eastern-asia","contId":"asia","subId":null,"terId":null,"con":1},"BMB":{"id":"BMB","name":"Bumba, Democratic Republic of the Congo","location":{"lat":2.196177,"lon":22.470869},"countryName":"Democratic Republic of the Congo","iata":"BMB","rank":127,"countryId":"CD","dest":null,"airports":["BMB"],"images":["17.jpg","20.jpg"],"popularity":5.00001,"regId":"central-africa","contId":"africa","subId":null,"terId":null,"con":1},"SNR":{"id":"SNR","name":"Saint Nazaire","location":{"lat":47.2735,"lon":-2.2138},"countryName":"France","iata":"SNR","rank":127,"countryId":"FR","dest":null,"airports":["SNR"],"images":["3.jpg","4.jpg"],"popularity":6.010929269506077,"regId":"western-europe","contId":"europe","subId":null,"terId":null,"con":1},"SNU":{"id":"SNU","name":"Santa Clara","location":{"lat":22.424398,"lon":-79.941655},"countryName":"Cuba","iata":"SNU","rank":30,"countryId":"CU","dest":"g671534","airports":["SNU"],"images":[],"popularity":6.368399224128245,"regId":"caribbean","contId":"north-america","subId":null,"terId":null,"con":1},"BME":{"id":"BME","name":"Broome","location":{"lat":-17.961434,"lon":122.235852},"countryName":"Australia","iata":"BME","rank":91,"countryId":"AU","dest":"g255102","airports":["BME"],"images":[],"popularity":6.870780642540361,"regId":"australasia","contId":"oceania","subId":"WA_AU","terId":null,"con":6},"BMG":{"id":"BMG","name":"Bloomington","location":{"lat":39.162222,"lon":-86.529167},"countryName":"United States","iata":"BMG","rank":1024,"countryId":"US","dest":"g42881","airports":["BMG"],"images":[],"popularity":5.980000000362765,"regId":"northern-america","contId":"north-america","subId":"IN_US","terId":null,"con":1},"SNW":{"id":"SNW","name":"Thandwe","location":{"lat":18.46712,"lon":94.3411},"countryName":"Myanmar (Burma)","iata":"SNW","rank":104,"countryId":"MM","dest":"g612368","airports":["SNW"],"images":[],"popularity":8.415151964430805,"regId":"south-eastern-asia","contId":"asia","subId":null,"terId":null,"con":5},"BMI":{"id":"BMI","name":"Bloomington","location":{"lat":40.484203,"lon":-88.993687},"countryName":"United States","iata":"BMI","rank":71,"countryId":"US","dest":null,"airports":["BMI"],"images":["4.jpg","5.jpg"],"popularity":5.00001,"regId":"northern-america","contId":"north-america","subId":"IL_US","terId":null,"con":8},"BMO":{"id":"BMO","name":"Bhamo","location":{"lat":24.262957,"lon":97.238318},"countryName":"Myanmar (Burma)","iata":"BMO","rank":127,"countryId":"MM","dest":null,"airports":["BMO"],"images":["3.jpg","4.jpg"],"popularity":5.00001,"regId":"south-eastern-asia","contId":"asia","subId":null,"terId":null,"con":1},"SOC":{"id":"SOC","name":"Surakarta (Solo)","location":{"lat":-7.575489,"lon":110.824327},"countryName":"Indonesia","iata":"SOC","rank":99,"countryId":"ID","dest":"g297713","airports":["SOC"],"images":[],"popularity":6.581130143118886,"regId":"south-eastern-asia","contId":"asia","subId":null,"terId":null,"con":6},"SOB":{"id":"SOB","name":"Hévíz","location":{"lat":46.790286,"lon":17.186694},"countryName":"Hungary","iata":"SOB","rank":127,"countryId":"HU","dest":"g274894","airports":["SOB"],"images":[],"popularity":8.419751210074718,"regId":"central-europe","contId":"europe","subId":null,"terId":null,"con":1},"BMV":{"id":"BMV","name":"Buon Ma Thuot","location":{"lat":12.666194,"lon":108.038247},"countryName":"Vietnam","iata":"BMV","rank":127,"countryId":"VN","dest":"g670918","airports":["BMV"],"images":[],"popularity":6.629214377407382,"regId":"south-eastern-asia","contId":"asia","subId":null,"terId":null,"con":5},"SOG":{"id":"SOG","name":"Sogndal","location":{"lat":61.229834,"lon":7.100452},"countryName":"Norway","iata":"SOG","rank":127,"countryId":"NO","dest":"g226929","airports":["SOG"],"images":[],"popularity":5.801099708940608,"regId":"northern-europe","contId":"europe","subId":null,"terId":null,"con":4},"SOF":{"id":"SOF","name":"Sofia","location":{"lat":42.697708,"lon":23.321867},"countryName":"Bulgaria","iata":"SOF","rank":11,"countryId":"BG","dest":"g294452","airports":["SOF"],"images":[],"popularity":9.546869745369207,"regId":"eastern-europe","contId":"europe","subId":null,"terId":null,"con":65},"BMU":{"id":"BMU","name":"Bima","location":{"lat":-8.464266,"lon":118.744903},"countryName":"Indonesia","iata":"BMU","rank":106,"countryId":"ID","dest":null,"airports":["BMU"],"images":["3.jpg","4.jpg"],"popularity":5.00001,"regId":"south-eastern-asia","contId":"asia","subId":null,"terId":null,"con":3},"BMW":{"id":"BMW","name":"Bordj Badji Mokhtar","location":{"lat":21.3775,"lon":0.923611},"countryName":"Algeria","iata":"BMW","rank":127,"countryId":"DZ","dest":null,"airports":["BMW"],"images":["3.jpg","4.jpg"],"popularity":5.00001,"regId":"northern-africa","contId":"africa","subId":null,"terId":null,"con":2},"BMY":{"id":"BMY","name":"Art Island","location":{"lat":-19.717545,"lon":163.659507},"countryName":"New Caledonia","iata":"BMY","rank":127,"countryId":"NC","dest":null,"airports":["BMY"],"images":["3.jpg","4.jpg"],"popularity":5.00001,"regId":"melanesia","contId":"oceania","subId":null,"terId":null,"con":1},"SOJ":{"id":"SOJ","name":"Sørkjosen","location":{"lat":69.79219,"lon":20.941173},"countryName":"Norway","iata":"SOJ","rank":127,"countryId":"NO","dest":null,"airports":["SOJ"],"images":["4.jpg","6.jpg"],"popularity":5.00001,"regId":"northern-europe","contId":"europe","subId":null,"terId":null,"con":2},"SOM":{"id":"SOM","name":"San Tomé","location":{"lat":8.941529,"lon":-64.130079},"countryName":"Venezuela","iata":"SOM","rank":127,"countryId":"VE","dest":null,"airports":["SOM"],"images":["1.jpg","2.JPG"],"popularity":5.00001,"regId":"southern-america","contId":"south-america","subId":null,"terId":null,"con":1},"SON":{"id":"SON","name":"Luganville","location":{"lat":-15.506433,"lon":167.200275},"countryName":"Vanuatu","iata":"SON","rank":127,"countryId":"VU","dest":"g1207993","airports":["SON"],"images":[],"popularity":5.535565619472191,"regId":"melanesia","contId":"oceania","subId":null,"terId":null,"con":9},"BNA":{"id":"BNA","name":"Nashville","location":{"lat":36.162664,"lon":-86.781602},"countryName":"United States","iata":"BNA","rank":5,"countryId":"US","dest":"g55229","airports":["BNA"],"images":[],"popularity":7.740005116245811,"regId":"northern-america","contId":"north-america","subId":"TN_US","terId":null,"con":74},"SOQ":{"id":"SOQ","name":"Sorong","location":{"lat":-0.881999,"lon":131.295483},"countryName":"Indonesia","iata":"SOQ","rank":103,"countryId":"ID","dest":null,"airports":["SOQ"],"images":["1.jpg","3.jpg"],"popularity":5.00001,"regId":"south-eastern-asia","contId":"asia","subId":null,"terId":null,"con":11},"BNC":{"id":"BNC","name":"Beni, Democratic Republic of the Congo","location":{"lat":0.499012,"lon":29.452754},"countryName":"Democratic Republic of the Congo","iata":"BNC","rank":127,"countryId":"CD","dest":null,"airports":["BNC"],"images":["5.jpg","35.jpg"],"popularity":5.00001,"regId":"central-africa","contId":"africa","subId":null,"terId":null,"con":1},"SOU":{"id":"SOU","name":"Southampton","location":{"lat":50.9097,"lon":-1.404351},"countryName":"United Kingdom","iata":"SOU","rank":11,"countryId":"GB","dest":"g186299","airports":["SOU"],"images":[],"popularity":6.602048064118991,"regId":"northern-europe","contId":"europe","subId":null,"terId":null,"con":23},"BNE":{"id":"BNE","name":"Brisbane","location":{"lat":-27.469771,"lon":153.025124},"countryName":"Australia","iata":"BNE","rank":20,"countryId":"AU","dest":"g255068","airports":["BNE"],"images":[],"popularity":9.039752066115703,"regId":"australasia","contId":"oceania","subId":"QL_AU","terId":null,"con":75},"BND":{"id":"BND","name":"Bandar Abbas","location":{"lat":27.183222,"lon":56.266646},"countryName":"Iran","iata":"BND","rank":127,"countryId":"IR","dest":null,"airports":["BND"],"images":["5.jpg","10.jpg"],"popularity":5.00001,"regId":"southern-asia","contId":"asia","subId":null,"terId":null,"con":1},"SOW":{"id":"SOW","name":"Show Low","location":{"lat":34.254208,"lon":-110.029833},"countryName":"United States","iata":"SOW","rank":127,"countryId":"US","dest":null,"airports":["SOW"],"images":["1.jpg","2.jpg"],"popularity":5.00001,"regId":"northern-america","contId":"north-america","subId":"AZ_US","terId":null,"con":1},"BNI":{"id":"BNI","name":"Benin City","location":{"lat":6.334986,"lon":5.603746},"countryName":"Nigeria","iata":"BNI","rank":120,"countryId":"NG","dest":"g298361","airports":["BNI"],"images":[],"popularity":7.962854804935542,"regId":"western-africa","contId":"africa","subId":null,"terId":null,"con":2},"SOY":{"id":"SOY","name":"Stronsay","location":{"lat":59.106884,"lon":-2.600064},"countryName":"United Kingdom","iata":"SOY","rank":127,"countryId":"GB","dest":null,"airports":["SOY"],"images":["21.png","22.jpg"],"popularity":5.00001,"regId":"northern-europe","contId":"europe","subId":null,"terId":null,"con":2},"BNK":{"id":"BNK","name":"Ballina","location":{"lat":-28.837965,"lon":153.562907},"countryName":"Australia","iata":"BNK","rank":87,"countryId":"AU","dest":"g528913","airports":["BNK"],"images":[],"popularity":5.611383765642858,"regId":"australasia","contId":"oceania","subId":"NS_AU","terId":null,"con":2},"BNJ":{"id":"BNJ","name":"Bonn","location":{"lat":50.733992,"lon":7.099814},"countryName":"Germany","iata":"BNJ","rank":1024,"countryId":"DE","dest":"g187370","airports":["BNJ"],"images":[],"popularity":7.583516844351271,"regId":"central-europe","contId":"europe","subId":null,"terId":null,"con":1},"BNN":{"id":"BNN","name":"Brønnøysund","location":{"lat":65.473558,"lon":12.207735},"countryName":"Norway","iata":"BNN","rank":127,"countryId":"NO","dest":null,"airports":["BNN"],"images":["2.aspx","3.jpg"],"popularity":5.00001,"regId":"northern-europe","contId":"europe","subId":null,"terId":null,"con":3},"BNS":{"id":"BNS","name":"Barinas","location":{"lat":8.62315,"lon":-70.237105},"countryName":"Venezuela","iata":"BNS","rank":87,"countryId":"VE","dest":null,"airports":["BNS"],"images":["5.jpg","6.jpg"],"popularity":5.00001,"regId":"southern-america","contId":"south-america","subId":null,"terId":null,"con":1},"SPD":{"id":"SPD","name":"Saidpur","location":{"lat":25.782954,"lon":88.898267},"countryName":"Bangladesh","iata":"SPD","rank":126,"countryId":"BD","dest":null,"airports":["SPD"],"images":["9.jpg","10.jpg"],"popularity":5.00001,"regId":"southern-asia","contId":"asia","subId":null,"terId":null,"con":1},"SPC":{"id":"SPC","name":"Santa Cruz de La Palma","location":{"lat":28.683989,"lon":-17.764575},"countryName":"Spain","iata":"SPC","rank":19,"countryId":"ES","dest":null,"airports":["SPC"],"images":["4.jpg","6.jpg"],"popularity":5.970112850776348,"regId":"southern-europe","contId":"europe","subId":null,"terId":null,"con":18},"BNY":{"id":"BNY","name":"Bellona Island","location":{"lat":-11.300298,"lon":159.794219},"countryName":"Solomon Islands","iata":"BNY","rank":127,"countryId":"SB","dest":null,"airports":["BNY"],"images":["8.jpg","14.jpg"],"popularity":5.00001,"regId":"melanesia","contId":"oceania","subId":null,"terId":null,"con":1},"SPI":{"id":"SPI","name":"Springfield","location":{"lat":39.781721,"lon":-89.650148},"countryName":"United States","iata":"SPI","rank":108,"countryId":"US","dest":"g60887","airports":["SPI"],"images":[],"popularity":5.980026501234764,"regId":"northern-america","contId":"north-america","subId":"IL_US","terId":null,"con":4},"BNX":{"id":"BNX","name":"Banja Luka","location":{"lat":44.772181,"lon":17.191},"countryName":"Bosnia & Herzegovina","iata":"BNX","rank":88,"countryId":"BA","dest":"g303192","airports":["BNX"],"images":[],"popularity":7.049630052968054,"regId":"southern-europe","contId":"europe","subId":null,"terId":null,"con":7},"SPK":{"id":"SPK","name":"Sapporo","location":{"lat":43.062096,"lon":141.354376},"countryName":"Japan","iata":"SPK","rank":50,"countryId":"JP","dest":"g298560","airports":["OKD","CTS"],"images":[],"popularity":8.493445114369754,"regId":"eastern-asia","contId":"asia","subId":null,"terId":null,"con":50},"SPN":{"id":"SPN","name":"Saipan","location":{"lat":15.151515,"lon":145.729789},"countryName":"United States","iata":"SPN","rank":31,"countryId":"US","dest":null,"airports":["SPN"],"images":["1.jpg","2.jpeg"],"popularity":5.00001,"regId":"micronesia","contId":"oceania","subId":null,"terId":"MP","con":7},"SPP":{"id":"SPP","name":"Menongue","location":{"lat":-14.659408,"lon":17.698488},"countryName":"Angola","iata":"SPP","rank":127,"countryId":"AO","dest":null,"airports":["SPP"],"images":["5.jpeg","7.jpg"],"popularity":5.00001,"regId":"central-africa","contId":"africa","subId":null,"terId":null,"con":1},"SPR":{"id":"SPR","name":"San Pedro Town","location":{"lat":17.921366,"lon":-87.96109},"countryName":"Belize","iata":"SPR","rank":91,"countryId":"BZ","dest":"g291962","airports":["SPR"],"images":[],"popularity":8.636869745369207,"regId":"central-america","contId":"north-america","subId":null,"terId":null,"con":4},"BOB":{"id":"BOB","name":"Bora Bora","location":{"lat":-16.500413,"lon":-151.74149},"countryName":"French Polynesia","iata":"BOB","rank":51,"countryId":"PF","dest":null,"airports":["BOB"],"images":["2.jpg","3.jpg"],"popularity":5.00001,"regId":"polynesia","contId":"oceania","subId":null,"terId":null,"con":7},"BOD":{"id":"BOD","name":"Bordeaux","location":{"lat":44.837789,"lon":-0.57918},"countryName":"France","iata":"BOD","rank":11,"countryId":"FR","dest":"g187079","airports":["BOD"],"images":[],"popularity":9.260140285429097,"regId":"western-europe","contId":"europe","subId":null,"terId":null,"con":93},"SPS":{"id":"SPS","name":"Wichita Falls","location":{"lat":33.988889,"lon":-98.491944},"countryName":"United States","iata":"SPS","rank":98,"countryId":"US","dest":null,"airports":["BEC","SPS"],"images":["5.jpg","6.jpg"],"popularity":5.00001,"regId":"northern-america","contId":"north-america","subId":"TX_US","terId":null,"con":2},"BOC":{"id":"BOC","name":"Bocas Town, Bocas del Toro","location":{"lat":9.404795,"lon":-82.269193},"countryName":"Panama","iata":"BOC","rank":73,"countryId":"PA","dest":"g304171","airports":["BOC"],"images":[],"popularity":8.485707657045454,"regId":"central-america","contId":"north-america","subId":null,"terId":null,"con":2},"SPU":{"id":"SPU","name":"Split","location":{"lat":43.508132,"lon":16.440193},"countryName":"Croatia","iata":"SPU","rank":11,"countryId":"HR","dest":"g295370","airports":["SPU"],"images":[],"popularity":8.858281637490963,"regId":"southern-europe","contId":"europe","subId":null,"terId":null,"con":63},"BOH":{"id":"BOH","name":"Bournemouth","location":{"lat":50.719164,"lon":-1.880769},"countryName":"United Kingdom","iata":"BOH","rank":31,"countryId":"GB","dest":"g186262","airports":["BOH"],"images":[],"popularity":7.194325254508225,"regId":"northern-europe","contId":"europe","subId":null,"terId":null,"con":23},"BOG":{"id":"BOG","name":"Bogotá","location":{"lat":4.710989,"lon":-74.072092},"countryName":"Colombia","iata":"BOG","rank":11,"countryId":"CO","dest":"g294074","airports":["BOG"],"images":[],"popularity":9.28686974536921,"regId":"southern-america","contId":"south-america","subId":null,"terId":null,"con":71},"BOJ":{"id":"BOJ","name":"Burgas","location":{"lat":42.504793,"lon":27.462636},"countryName":"Bulgaria","iata":"BOJ","rank":13,"countryId":"BG","dest":"g635766","airports":["BOJ"],"images":[],"popularity":7.407771216029515,"regId":"eastern-europe","contId":"europe","subId":null,"terId":null,"con":61},"SPY":{"id":"SPY","name":"San-Pédro, Ivory Coast","location":{"lat":4.757869,"lon":-6.642433},"countryName":"Côte d’Ivoire","iata":"SPY","rank":127,"countryId":"CI","dest":null,"airports":["SPY"],"images":["2.JPG","5.jpg"],"popularity":5.00001,"regId":"western-africa","contId":"africa","subId":null,"terId":null,"con":1},"BOI":{"id":"BOI","name":"Boise","location":{"lat":43.61871,"lon":-116.214607},"countryName":"United States","iata":"BOI","rank":19,"countryId":"US","dest":"g35394","airports":["BOI"],"images":[],"popularity":5.980462430706015,"regId":"northern-america","contId":"north-america","subId":"ID_US","terId":null,"con":18},"BON":{"id":"BON","name":"Bonaire","location":{"lat":12.20189,"lon":-68.262382},"countryName":"Netherlands","iata":"BON","rank":64,"countryId":"NL","dest":null,"airports":["BON"],"images":["4.jpg","5.jpg"],"popularity":5.00001,"regId":"caribbean","contId":"north-america","subId":null,"terId":"BQ","con":7},"BOM":{"id":"BOM","name":"Mumbai","location":{"lat":19.075984,"lon":72.877656},"countryName":"India","iata":"BOM","rank":6,"countryId":"IN","dest":"g304554","airports":["BOM"],"images":[],"popularity":9.357154313972007,"regId":"southern-asia","contId":"asia","subId":null,"terId":null,"con":97},"BOO":{"id":"BOO","name":"Bodø","location":{"lat":67.280356,"lon":14.404916},"countryName":"Norway","iata":"BOO","rank":79,"countryId":"NO","dest":"g190470","airports":["BOO"],"images":[],"popularity":7.291821790923718,"regId":"northern-europe","contId":"europe","subId":null,"terId":null,"con":17},"BOS":{"id":"BOS","name":"Boston","location":{"lat":42.360082,"lon":-71.05888},"countryName":"United States","iata":"BOS","rank":0,"countryId":"US","dest":"g60745","airports":["BOS"],"images":[],"popularity":8.213549815879446,"regId":"northern-america","contId":"north-america","subId":"MA_US","terId":null,"con":144},"SQD":{"id":"SQD","name":"Shangrao","location":{"lat":28.454862,"lon":117.943433},"countryName":"China","iata":"SQD","rank":127,"countryId":"CN","dest":"g1016927","airports":["SQD"],"images":[],"popularity":5.99888718659092,"regId":"eastern-asia","contId":"asia","subId":null,"terId":null,"con":6},"SQG":{"id":"SQG","name":"Sintang Regency","location":{"lat":0.063611,"lon":111.473333},"countryName":"Indonesia","iata":"SQG","rank":127,"countryId":"ID","dest":null,"airports":["SQG"],"images":["5.jpg","7.jpg"],"popularity":5.00001,"regId":"south-eastern-asia","contId":"asia","subId":null,"terId":null,"con":1},"KAA":{"id":"KAA","name":"Kasama","location":{"lat":-10.229055,"lon":31.193945},"countryName":"Zambia","iata":"KAA","rank":1024,"countryId":"ZM","dest":null,"airports":["KAA"],"images":[],"popularity":5.00001,"regId":"eastern-africa","contId":"africa","subId":null,"terId":null,"con":1},"BOY":{"id":"BOY","name":"Bobo-Dioulasso","location":{"lat":11.164922,"lon":-4.305154},"countryName":"Burkina Faso","iata":"BOY","rank":127,"countryId":"BF","dest":"g317056","airports":["BOY"],"images":[],"popularity":8.149535048883557,"regId":"western-africa","contId":"africa","subId":null,"terId":null,"con":2},"KAB":{"id":"KAB","name":"Kariba","location":{"lat":-16.519722,"lon":28.884722},"countryName":"Zimbabwe","iata":"KAB","rank":127,"countryId":"ZW","dest":"g477978","airports":["KAB"],"images":[],"popularity":8.203775424495975,"regId":"eastern-africa","contId":"africa","subId":null,"terId":null,"con":1},"SQJ":{"id":"SQJ","name":"Sanming","location":{"lat":26.263406,"lon":117.638678},"countryName":"China","iata":"SQJ","rank":127,"countryId":"CN","dest":null,"airports":["SQJ"],"images":["1.JPG","5.jpg"],"popularity":5.00001,"regId":"eastern-asia","contId":"asia","subId":null,"terId":null,"con":5},"KAE":{"id":"KAE","name":"Kake","location":{"lat":56.975833,"lon":-133.947222},